price,name,lng,lat,location,when
" 32000","恒大翡翠华庭",118.828241033807,32.10494908615794,"南京华飞路1号","2017年07月05日"
" 26000","融侨观邸",118.6341269686986,32.08509008337853,"南京海院路88号","2017年07月02日"
" 30210","中建国熙台",118.657872540295,32.07513036448952,"南京新浦路中建国熙台","2017年12月02日"
" 28500","金浦紫御东方",118.8411746011836,32.1312287642796,"南京经五路金浦紫御东方","2017年11月06日"
" 29000","嘉誉山",118.8444981320636,32.11081415881797,"南京兴贤路19号","2017年07月09日"
" 40000","银城君颐东方",118.8968338818701,32.05156767640222,"南京马群街169号","2017年12月02日"
" 23800","万科金域东方",118.9415681110799,31.94393485349766,"南京淳化街道梨树园路9号","2017年11月01日"
" 12000","碧桂园凤凰城",119.0996863413862,32.03218860886476,"南京经济开发区S122东北侧碧桂园凤凰城","2017年12月19日"
" 18500","宝隆时代广场",118.6557941355029,32.0722597314675,"南京江浦街道新浦路128号","2017年11月04日"
" 23500","恒辉假日广场",119.0382359905007,31.65897165925773,"南京珍珠南路1号","2017年01月19日"
" 12800","荣盛花语城",119.0713893104331,32.06038503876874,"南京龙池街道林场路1号","2017年08月05日"
" 29800","路易庄园",118.6185010350814,32.06026574461771,"南京雨山西路89号","2018年01月19日"
" 26500","恒大悦澜湾",118.7780744080256,32.05723550180587,"南京嘉业路8号","2018年01月26日"
" 24300","北江锦城",118.6185010350814,32.06026574461771,"南京雨山西路89号","2017年11月01日"
" 14900","卧龙湖小镇",119.0553388291052,31.73120374609378,"南京卧龙湖大道1号","2017年11月11日"
" 27600","帝景天誉别墅",118.8280407907806,31.93865135451429,"南京江宁双龙大道3000号","2017年12月05日"
" 18000","尚峰尚水",118.5247971254704,32.09362762651364,"南京汤泉街道尚峰尚水","2017年04月22日"
" 10000","骋望七里楠花园",118.7676014629324,31.7932657268591,"南京龙池街道龙华路66号","2016年08月19日"
" 29800","雅居乐滨江国际",118.6781901879467,32.06813815781693,"南京天浦路96号","2017年12月27日"
" 19599","力标赞城",118.7780744080256,32.05723550180587,"南京台南路10号","2018年01月20日"
" 25000","山河水花园",118.525431642669,32.09365231721724,"南京汤泉镇假日路8号","2014年04月30日"
" 27500","明发珠江国际",118.7780744080256,32.05723550180587,"南京张敦路59号","2016年04月15日"
" 24600","大华锦绣华城香鸢美颂",118.7294785053607,32.1235233911917,"南京浦珠北路59号","2017年11月25日"
" 8600","花样年花样城",118.9642262644868,31.37246193670052,"南京双高路50号","2017年12月06日"
" 23000","瑞安翠湖山",118.7516557478249,31.91895445421006,"南京牛首山大道121号","2016年11月08日"
" 38780","深业滨江半岛",118.7461778251301,32.10314358339629,"南京龙江路30号","2017年12月25日"
" 25800","电建海赋尚城",118.8429568887222,32.137634319277,"南京经五路电建海赋尚城","2017年12月07日"
" 1762","鸿信云深处",118.9559512057867,32.00015966099539,"南京东山街道神凤路1169号","2013年07月14日"
" 41800","新城璞樾钟山",118.9177116598378,32.08330568277308,"南京奔马路新城璞樾钟山","2017年12月02日"
" 25500","观山悦",120.4381750599716,31.07803497431056,"南京顶山街道定向河西侧","2017年12月27日"
" 38000","德基世贸壹号",118.7295319554368,31.99875917135895,"南京庐山路208号","2014年10月28日"
" 8300","海尔双湖壹号公馆",118.9719600879411,31.39315094089743,"南京双湖路1号","2017年09月27日"
" 20000","首创立方",118.7274141777394,31.97226176448333,"南京建邺地铁二号线天迈广场油坊桥站","2016年04月01日"
" 11500","荣盛鹭岛荣府",118.8189743899458,32.5387256198191,"南京马鞍街道鹭岛南路3号","2017年12月28日"
" 12800","藏珑谷山庄",119.0135245042267,31.74103717122889,"南京乌夏路88号","2016年06月30日"
" 30000","绿地缤纷广场",118.8002258367827,32.12031518948997,"南京幕府东路绿地缤纷广场","2016年11月13日"
" 350","绿国万象都荟",118.8020402854551,32.0053428312632,"南京永乐路洪家园1号","2015年11月17日"
" 21000","万科星荟",118.8108576885273,31.97475979445248,"南京明城大道万科都荟南苑","2017年10月29日"
" 26000","明发香山郡",118.644523753654,32.06639466682562,"南京浦口江浦街道沿山大道与财八路交叉口（大马山路6号）","2017年12月07日"
" 50000","金轮星立方",118.7817723886575,31.99799477275822,"南京宁南街道金轮星立方","2015年12月04日"
" 23000","花样年喜年中心",118.7883423094963,32.1027477897518,"南京鼓楼区中央北路河路道1号","2016年09月21日"
" 22000","中南世纪雅苑",118.9147371879382,32.04218097617403,"南京马群街道中南世纪雅苑","2017年05月20日"
" 23000","电建洺悦府",118.8898360621846,32.12635323595738,"南京尧化路611号","2017年12月22日"
" 21000","金轮星立方",118.7817723886575,31.99799477275822,"南京宁南街道金轮星立方","2015年12月04日"
" 350","融创精彩天地",118.8016655627015,32.09722784523827,"南京黄家圩路融创精彩天地","2016年11月05日"
" 9500","嘉恒有山",118.9378352672112,32.42445945693139,"南京金牛湖街道通河路9号","2017年12月16日"
" 55000","宏图上水云锦",118.7471642660885,32.02109906905923,"南京云锦路宏图上水云锦","2016年11月11日"
" 40","中南锦苑",118.7565149652946,31.98425669945897,"南京软件大道中南锦苑","2017年03月22日"
" 19000","明发悦庭",118.6543205396983,32.09205264295978,"南京七瑶路7号","2017年09月16日"
" 20000","苏宁紫金嘉悦",118.8922355448967,32.0971265046681,"南京徐庄软件园","2016年09月24日"
" 25000","涵碧楼",118.7781792402786,32.04859690702937,"南京汉中门大街涵碧楼","2015年08月29日"
" 17000","明发财富中心",118.6744974085037,32.06391284945888,"南京浦口大道6号","2017年10月01日"
" 950","新城璞樾钟山",118.9177116598378,32.08330568277308,"南京奔马路新城璞樾钟山","2017年12月02日"
" 17000","江山汇金",118.7650569131626,32.06860445880062,"南京鼓楼区燕江路201号","2014年05月07日"
" 43000","百家湖别墅花园",118.8203261106704,31.94847114699963,"南京湖滨路58号","2017年04月12日"
" 35000","明发云庭",118.654036110123,32.09007042916409,"南京江浦街道胡桥路9号","2016年06月20日"
" 13800","金宁广场",118.8490874698954,32.34748211712014,"南京六合长江路1号","2010年11月06日"
" 14500","翠屏水晶广场",118.8769567461727,32.16981583656114,"南京新港大道88号","2016年01月30日"
" 26000","绿地之窗",118.7986624366527,31.97531020296035,"南京南京南站北广场绿地之窗","2017年01月01日"
" 220","嘉恒有山",118.9378352672112,32.42445945693139,"南京金牛湖街道通河路9号","2017年12月16日"
" 10599","骋望七里楠花园",118.7676014629324,31.7932657268591,"南京龙池街道龙华路66号","2015年02月14日"
" 38000","通宇林景象山墅院",118.6349031280151,32.08732150414787,"南京江浦街道白马路89号","2016年03月26日"
" 25000","九霄梦天地",118.9229219584567,32.099652629076,"南京学衡路1号","2016年02月26日"
" 21000","浦泰和天下三期",118.7422658842952,32.13531269255433,"南京江山路9号","2017年11月11日"
" 19000","银城KinmaQ+社区",118.9122779050283,32.07294880801665,"南京金马路银城KinmaQ+社区","2017年10月01日"
" 19000","明发新城中心",118.6560511800599,32.07166634921652,"南京江浦街道浦口大道37号","2015年08月12日"
" 14000","中州国际广场",118.7780744080256,32.05723550180587,"南京上海北路699号","2017年05月25日"
" 26000","京奥港未来墅",118.8946102244954,32.01788978803834,"南京智汇路92号","2017年09月15日"
" 20600","威尼斯水城第十九街区",118.7506878671677,32.16233887741666,"南京浦洲路66号","2017年11月11日"
" 17500","万达茂",118.9886366904625,32.13304989681055,"南京守敬路万达茂","2018年01月22日"
" 44000","弘阳燕澜七缙",118.7253096635229,32.1728642297381,"南京沿江街道高新技术产业开发区","2017年08月17日"
" 15000","金轮星光名座",118.843304593141,31.91502712846176,"南京诚信大道998号","2013年01月22日"
" 17000","绿地理想城",118.7780744080256,32.05723550180587,"南京高塘路99号","2018年01月06日"
" 23500","南京常发广场",118.8171849680649,32.09191768797017,"南京红山路88号","2015年08月05日"
" 230","湖南路地下商业街",118.7811560342979,32.07499141065085,"南京湖南路地下商业街","2017年06月03日"
" 26000","毅达汇创中心",118.7780744080256,32.05723550180587,"南京总部大道毅达汇创中心","2017年06月05日"
" 420","郦湖美墅",118.8189743899458,32.5387256198191,"南京马鞍街道弘湖路1号","2017年07月09日"
" 15000","弘阳时代中心二期",118.7202169755528,32.15360821286647,"南京大桥北路弘阳时代中心","2017年10月29日"
" 25600","三金鑫宁府",118.6359317542987,32.05594751905159,"南京珠泉西路三金鑫宁府","2017年12月09日"
" 6350","碧桂园北岸世家",118.7780744080256,32.05723550180587,"南京滁阳东路901号","2017年07月26日"
" 58","中骏六号街区",118.7780744080256,32.05723550180587,"南京金德路65号","2018年01月21日"
" 29000","升龙汇金中心",118.7192790457868,31.9897476262084,"南京江山大街升龙汇金中心","2015年03月15日"
" 28000","万科金域国际",118.8686047396146,31.96304828770282,"南京同夏路24号","2017年12月30日"
" 36000","恒大翡翠华庭",118.828241033807,32.10494908615794,"南京华飞路1号","2017年07月05日"
" 18000","远洋山水",118.7780744080256,32.05723550180587,"南京秣周西路33号","2017年12月05日"
" 6900","碧桂园晚亭印象",118.7780744080256,32.05723550180587,"南京滁阳路碧桂园晚亭印象","2017年11月19日"
" 11500","碧桂园世纪城邦",118.7780744080256,32.05723550180587,"南京郭庄镇机场大道南碧桂园世纪城邦","2017年10月14日"
" 40000","金地浅山艺境",118.6578035046182,32.09415726915299,"南京七里桥北路金地浅山艺境","2016年06月01日"
" 16000","星悦城",118.7026868902715,32.16673496276866,"南京星火路星悦城","2018年01月17日"
" 30000","首创立方",118.7274141777394,31.97226176448333,"南京建邺地铁二号线天迈广场油坊桥站","2017年10月13日"
" 32000","仙林汽配城",118.9030966199533,32.11716870711489,"南京王子楼西108号","2017年08月04日"
" 25800","御澜府",118.7187279021191,32.15139493848411,"南京泰山西路御澜府","2017年11月08日"
" 10000","润泰市场",118.6375107885377,31.91854782486056,"南京三山矶路9号","2015年10月"
" 12275","海伦国际",119.0332748334713,31.66014569574564,"南京中大街81号","2017年10月"
" 28500","融创玖溪桃花源",118.7780744080256,32.05723550180587,"南京桃溪路1号","2017年12月23日"
" 14900","荣盛首府",118.7550997595229,32.24730400725358,"南京葛塘街道和旭路500号","2017年11月29日"
" 18000","东原亲山",118.7780744080256,32.05723550180587,"南京宝华山国家森林公园南门","2017年12月22日"
" 16000","新城源山",118.7780744080256,32.05723550180587,"南京宝华山国家森林公园","2017年11月11日"
" 23600","弘阳禹洲时光春晓",118.7780744080256,32.05723550180587,"南京梨树园路10号","2018年01月10日"
" 50000","钟鼎名悦广场",118.8701256700458,32.04432304290161,"南京中山门大街297号","2017年09月16日"
" 13800","冠城大通蓝郡",118.8261801952043,32.32400440901211,"南京龙池街道雄州南路333号","2017年08月20日"
" 17000","蓝天星港花园",118.8634795530472,31.78219122481536,"南京来凤路5号","2017年12月23日"
" 33000","江山汇悦山府",118.7575440056969,32.11252831954423,"南京宝塔桥江山汇悦山府","2017年12月24日"
" 11000","融创中南御园",118.9151156260835,31.34118934404421,"南京水阳江路99号","2018年01月02日"
" 25000","大华锦绣华城商业",118.7294785053607,32.1235233911917,"南京浦口区浦珠北路59号","2017年09月26日"
" 27300","通宇林景尊园",118.657872540295,32.07513036448952,"南京新浦路通宇林景尊园","2017年12月20日"
" 26000","华侨城翡翠天域",118.9979559714333,32.14946210342667,"南京工农路和疏港大道交汇处华侨城翡翠天域","2017年01月25日"
" 11200","梁台煦府",118.987561612801,31.88530143885595,"南京湖熟街道润湖大道398号","2016年12月10日"
" 14000","碧桂园S1秦淮世家",118.9151434340288,31.64831174257394,"南京横山西路碧桂园S1秦淮世家","2017年11月30日"
" 18500","华润幸福里",118.8973039435841,32.1362532799814,"南京尧化街道前塘路9号","2017年09月30日"
" 23000","牧龙原墅",118.7780744080256,32.05723550180587,"南京滨溪大道1000号","2015年04月24日"
" 25800","弘阳燕江府",118.8368259203793,32.14336419823352,"南京太新路弘阳燕江府","2016年12月29日"
" 37300","紫金华府",118.8870363439441,32.04625979736127,"南京顾家营路紫金华府","2017年12月25日"
" 32000","高科荣境桂山堂",118.9883087451717,32.1266799019819,"南京守敬路313号","2017年07月16日"
" 420","锦绣华府",118.7493567486688,32.09924085699888,"南京龙江路（南京西站西侧）","2016年09月02日"
" 350","保利堂悦",118.8143712694957,31.98731565082164,"南京汇景北路保利堂悦","2016年04月23日"
" 693","长发都市诸公",118.7843245321029,31.99901936091297,"南京雨花南路5号","2015年10月24日"
" 37500","恒盛金陵湾",118.7471334182773,32.08461858763975,"南京鼓楼区热河南路街道","2017年12月29日"
" 19000","证大喜玛拉雅中心",118.7780744080256,32.05723550180587,"南京民智路9号、10号、11号、12号、13号","2018年01月07日"
" 22000","凤凰和睿大厦",118.7973636485803,32.03553521855789,"南京太平南路与白下路交界处","时间待定"
" 23000","山水云房花园",118.7053330557614,32.1188427751631,"南京浦珠北路126号","2017年05月22日"
" 35900","世茂外滩新城",118.7407690387222,32.08452501199852,"南京南通路89号","时间待定"
" 8800","福源名居",118.9076662964894,31.33524023438196,"南京濑渚路2号","2013年12月19日"
" 6800","创维乐活城",119.019769409149,31.69173247136681,"南京团山西路26号","2017年09月29日"
" 11900","翠屏城",118.8651861915839,31.79647196501264,"南京天禄大道1号","2017年11月08日"
" 9700","江岸景城",118.4751745036245,31.86526441060137,"南京乌江故居路8号","2015年02月08日"
" 19000","景瑞春风十里",118.7728226445226,31.86138035874453,"南京吉山大道9号","2017年06月06日"
0,"融创玉兰公馆",118.8267047912492,32.14269896527448,"南京燕子矶街道融创玉兰公馆","2017年11月24日"
" 23000","弘阳上院",118.908251244585,31.93633503320019,"南京江宁区淳化街道月华路8号","2015年02月18日"
" 12730","海伦国际",119.0332748334713,31.66014569574564,"南京中大街81号","2017年10月"
" 30000","海峡城",118.6927567130454,31.98704236783236,"南京扬子江大道399号","2016年12月20日"
" 800","碧桂园湖光山色",118.7077577853499,31.8767737455717,"南京谷里街道悦湖路16号","2017年12月23日"
0,"葛洲坝招商紫郡兰园",118.8398094642662,32.12682692032765,"南京和燕路葛洲坝招商紫郡蘭园","2017年10月"
" 20000","绿地国际花都",118.6038571762495,31.85923865241797,"南京江宁街道地秀路522号","2016年09月30日"
" 50400","力标赞城",118.7780744080256,32.05723550180587,"南京台南路10号","预计2018年01月"
" 34000","龙江里",118.7459875038366,32.05770706730537,"南京江东北路龙江里","2016年12月30日"
" 13500","石林中心城",118.8455809569945,32.33233827463086,"南京六合区雄州街道王桥路99号","2017年10月29日"
0,"融创臻园",118.6190333484689,32.0621065277938,"南京雨山西路和广电南路交汇处","2017年12月07日"
" 6300","碧桂园欧洲城",118.7780744080256,32.05723550180587,"南京滁宁大道1998号","2017年07月25日"
0,"世茂城品",118.7697712210782,31.97779847265954,"南京宁双路世茂城品","2017年06月23日"
0,"云栖山庄",119.0651616938568,32.06372336417272,"南京汤山街道阳明路99号","2016年09月11日"
0,"新城香悦澜山",118.9822212970358,32.131600315832,"南京纬地路新城香悦澜山","2017年04月10日"
0,"苏宁钟山朝阳府",118.8980239749758,32.0913139891331,"南京玄武大道苏宁钟山朝阳府","2016年05月08日"
0,"雍福龙庭",118.7979409742604,31.91281860314555,"南京将军大道129号","2017年01月25日"
0,"罗托鲁拉小镇",118.8647752581351,31.91520232380234,"南京秣陵街道竹山南路688号","2017年11月18日"
0,"金陵雅颂居",118.8140877346326,32.0310141948896,"南京大光路67号","2016年08月14日"
0,"中南山锦花城",118.9328094751541,32.05707979090446,"南京麒麟街道袁家边路20号","2017年12月26日"
0,"九间堂",118.786921917807,31.91851637664588,"南京康厚街10号","2017年04月06日"
0,"明发云庭",118.654036110123,32.09007042916409,"南京江浦街道胡桥路9号","2016年06月22日"
0,"华润新悦天地",118.765894137192,32.02198720429714,"南京所街7号","2016年08月08日"
" 643","金隅紫京府",118.7421926822775,31.99647068073844,"南京泰山路金隅紫金府","2017年11月18日"
0,"中浩山屿湖",118.7292404544005,31.7599655424243,"南京横溪街道甘泉湖路1号","2017年06月12日"
0,"骋望云邸",118.9063772370656,32.0974802253205,"南京鹤鸣路68号","2015年12月19日"
0,"恒大华府",118.7673751276728,32.01835061656488,"南京雨花台区赛虹桥街道","2017年02月13日"
0,"中南世纪雅苑",118.9147371879382,32.04218097617403,"南京马群街道中南世纪雅苑","2016年10月20日"
0,"都市丽景",118.8609103364073,31.95098423673667,"南京莱茵达路12号","2017年01月22日"
0,"融侨悦城",118.8868769019025,31.96215649989881,"南京东山街道万安南路9号","预计2017年10月"
0,"九龙湖别墅",118.8140674437078,31.91976552926573,"南京秣陵街道清水亭西路188号","2016年11月18日"
0,"世茂招商语山",118.9136695608227,32.07140443035624,"南京金马路世茂招商语山","2016年10月29日"
0,"荣盛华府",118.8424973892843,32.33815268043833,"南京雄州街道桥西路162号","2017年07月15日"
0,"保利中央公园",118.8358169948339,31.907717162617,"南京秣陵街道长亭街59号","2017年06月15日"
0,"中粮祥云",118.9016898133382,31.92176510925952,"南京淳化街道鹏山路28号","2016年11月05日"
0,"保利西江月",118.6645215740018,32.04810818480485,"南京城南河路保利西江月","2017年05月27日"
0,"柏悦澜庭",118.7611107609616,31.99463989029829,"南京小行路52-1号","2016年04月15日"
0,"恒大龙珺",118.9328094751541,32.05707979090446,"南京麒麟街道袁家边路9号","2017年07月08日"
0,"鲁能泰山7号院",118.7780744080256,32.05723550180587,"南京格致西路1号","2017年07月19日"
0,"禹洲映月溪山",118.7366966443538,31.95870496486962,"南京善水湾西侧禹洲映月溪山","2017年04月28日"
0,"大吉公元",118.5248328322161,32.09369697857316,"南京汤泉镇江星桥线","2016年09月14日"
0,"武夷绿洲沁荷苑",118.8464174732586,31.93643674350169,"南京天元中路99号","2017年07月03日"
0,"中锐星湖名邸",118.8521412244427,31.93686355871871,"南京天元路中路128号","2017年04月23日"
0,"中航国际社区",118.8267047912492,32.14269896527448,"南京燕子矶街道中航国际社区","2017年10月30日"
0,"滟紫台",118.7882627196281,31.94294979560223,"南京将军大道韩府路18号","2014年10月30日"
0,"大发融悦",118.8757772890042,32.03761727573808,"南京双拜岗路大发融悦","2016年04月26日"
0,"景湖名都",118.9751052783113,31.31262210058944,"南京高淳固城镇育才西路91号（宁宣公路东侧）","2014年11月12日"
0,"景枫你山",118.9036931810493,31.90215849113093,"南京弘景大道3888号","2016年08月26日"
0,"银亿东城",118.9587943427258,32.05897989166949,"南京麒麟街道麒东路777号","2017年04月28日"
0,"金盛田阳光青城",118.6470131612392,32.07469479348762,"南京龙华路8号","2016年06月12日"
0,"东方熙龙山院",118.6349031280151,32.08732150414787,"南京白马路90号","2012年12月20日"
0,"紫金铭苑",118.8132958055628,32.12191964138096,"南京幕府东路228号","2017年07月24日"
0,"紫艺华府",118.7780744080256,32.05723550180587,"南京松杨路紫艺华府","2018年01月19日"
0,"招商1872公园里",118.8395779098515,32.1265750663835,"南京钟燕东路招商1872公园里","2017年03月08日"
0,"国信自然天城",118.6396317848637,32.09716963739323,"南京浦口区江浦街道沿山东路188号","2008年10月28日"
0,"九月森林",118.6243633750429,32.08322145514963,"南京黄山岭路九月森林","2016年11月02日"
0,"中电颐和府邸",118.8215207896258,32.10767049689627,"南京华电路1号","2017年12月26日"
0,"弘阳印象华庭",118.7471568514749,32.01816879567414,"南京大桥北路9号","2017年03月01日"
0,"碧景山庄",118.7820557878764,32.24351789402061,"南京大厂丁家山路2号","2015年02月11日"
0,"海玥名都",118.7397468991028,32.02285616038747,"南京月安街11号","2017年04月21日"
0,"世纪天城",119.0262094763331,31.69864565647768,"南京团山路1号","2016年07月19日"
0,"创源无想墅",119.0345666712044,31.61922565122734,"南京珍珠南路199号","2016年01月12日"
0,"保利堂悦",118.8143712694957,31.98731565082164,"南京汇景北路保利堂悦","2017年01月18日"
0,"星叶瑜憬湾",118.8313789586822,32.10966291802278,"南京迈皋桥街道网板路8号","2014年10月21日"
0,"骏景华庭",118.8438336420864,31.84266220343011,"南京秣陵街道铺岗街28号","2015年08月12日"
0,"东骏华府",118.9402609516984,32.33185044952094,"南京横梁街道瑞成路9号","2013年12月29日"
0,"朗诗青春街区",118.860522997851,31.78379644297444,"南京来凤路18号","2017年11月30日"
0,"万科九都荟",118.7780744080256,32.05723550180587,"南京民和路1号","2015年11月17日"
" 2500","雅居乐长乐渡",118.7928360996981,32.01967006337038,"南京剪子巷35号","2017年12月20日"
0,"海峡城",118.6927567130454,31.98704236783236,"南京扬子江大道399号","时间待定"
0,"京门府",118.8085602299652,32.03040026511993,"南京通济门外大街7号","2013年11月11日"
0,"苏宁钟山朝阳府",118.8980239749758,32.0913139891331,"南京玄武大道苏宁钟山朝阳府","2014年03月30日"
0,"橡树城",119.0426089417233,31.68602924142953,"南京红光东路8号","2018年01月23日"
0,"艾菲国际",118.7103797334216,32.1660916741099,"南京丽景路艾菲国际","2015年04月25日"
0,"万科城",119.0318104111878,31.64794059536451,"南京秀园路6号","2017年12月30日"
0,"银城蓝溪郡",118.8455118142197,31.84077395985172,"南京秣陵街道创新东路2号","2016年04月16日"
0,"万达茂",118.9886366904625,32.13304989681055,"南京守敬路万达茂","2015年10月"
" 300","佳兆业城市广场",118.7111427514268,31.97549666288131,"南京太清路佳兆业城市广场","2017年11月19日"
0,"罗托鲁拉小镇",118.8647752581351,31.91520232380234,"南京秣陵街道竹山南路688号","2016年04月30日"
0,"星叶枫情水岸",118.8824488493777,31.94785882669991,"南京衫湖东路18号","2015年03月06日"
0,"御珑湾",118.885206997773,32.34314111003709,"南京雄州街道龙棠路233号","2014年06月08日"
0,"长江峰景",118.7409714260554,32.09077482524257,"南京中山北路645号","2010年12月30日"
0,"盘金华府",118.7373539497667,32.20792031279412,"南京大厂新华西路458号","2014年06月21日"
0,"招商依云郡",118.8557419940455,31.78280145862487,"南京禄口街道信诚大道33号","2016年07月29日"
0,"华润国际社区",118.6944689174831,32.0951225369001,"南京广西埂大街100号","2017年12月28日"
0,"中粮鸿云",118.8794840888557,31.9929903739995,"南京丰泽路118号","2017年09月08日"
0,"富力尚悦居一期",118.6649571398859,31.91384029279126,"南京雨花板桥新城新湖大道（近莲花湖公园）","2015年10月24日"
0,"宏图上水云锦",118.7471642660885,32.02109906905923,"南京云锦路宏图上水云锦","2016年06月04日"
0,"君悦花园",118.7370625394592,32.23841441907536,"南京大厂浦六南路8号","2014年08月23日"
0,"龙海骏景",118.8678158228626,32.34732753028383,"南京冶浦路99号","2017年08月03日"
0,"阳光聚宝山庄臻园",118.8711991513286,32.09998525321101,"南京玄武大道88号","2016年09月13日"
0,"五矿崇文金城",118.7023798602279,31.98198025715574,"南京吴侯街158号","2017年11月20日"
0,"正荣润江城",118.7780744080256,32.05723550180587,"南京镇南河路99号","2017年07月05日"
0,"亚泰梧桐世家",118.7418459264693,32.26316024515804,"南京润富路666号","2017年08月03日"
0,"爱涛天岳城",119.0538628394912,31.64508377615755,"南京秦淮大道399号","2018年01月08日"
0,"麒麟山庄公园境",118.9450443396068,32.05831085966082,"南京东麒东路588号","时间待定"
0,"星叶羊山湖花园",118.9464675340093,32.12228406250346,"南京羊山北路星叶羊山湖花园","2014年10月25日"
0,"伴山香槟园",118.8974729552743,31.91310523050222,"南京格致路9号","2010年01月16日"
0,"保利礼墅",118.9164198093788,32.10312983020793,"南京仙林街道保利礼墅","2015年06月20日"
0,"钟山国际高尔夫",118.8777968298076,32.08817838109767,"南京环陵路7号","2013年06月01日"
0,"国府大院",118.9734677841464,31.86862911139792,"南京汤铜路国府大院","2016年05月12日"
0,"溧都桂苑",119.0096123837308,31.62595751886386,"南京溧水金牛北路666号","2011年11月24日"
0,"康利华府",119.0473882603077,31.64677206867821,"南京致远路68号","2018年01月01日"
0,"新城玖珑湖二期",118.8353148957365,31.90874343744838,"南京秣陵街道长亭街55号","2015年10月"
0,"城开新都雅苑",118.8466602796485,32.32954802998204,"南京雄州街道王桥路28号","预计2017年11月"
0,"正荣润峯",118.8217494398188,32.08739182928039,"南京河西南部学子路","2017年04月21日"
0,"金湖家园",119.1184075537228,31.69623158405371,"南京金湖路100号","2011年08月18日"
0,"涟城",118.7551542812776,31.99857515940986,"南京建邺区怡康街与西城路交汇处","2015年03月22日"
0,"中山首府",119.0438166011933,31.63602130552195,"南京崇文路68号(体育公园南300米)","2017年07月28日"
0,"中国铁建青秀城",118.8363707265197,32.12249472554185,"南京迈尧路327号","2016年06月04日"
0,"亚东同城逸境",119.0513517985278,31.6656657957003,"南京秦淮大道168号","2016年03月05日"
0,"高淳碧桂园",118.8968954988266,31.34340391152384,"南京淳溪镇石臼湖北路76号","2014年03月24日"
0,"升龙天汇",118.7053205495521,31.97159973267729,"南京新河路升龙天汇","2017年11月19日"
0,"九龙湖别墅",118.8140674437078,31.91976552926573,"南京秣陵街道清水亭西路188号","2016年11月18日"
0,"恒建金陵美域",118.9840945362107,31.87238911498233,"南京湖熟街道灵顺北路211号","2015年10月09日"
0,"荣鼎幸福城",118.833104783228,32.37022679098241,"南京方州路68号","2018年01月24日"
0,"金盛田锦上",118.644523753654,32.06639466682562,"南京江浦街道锦上路1号","2014年08月14日"
0,"玄武湖金茂广场御景华府",118.7901161161326,32.07812890593325,"南京中央路201号","2009年11月01日"
0,"垠领城市街区",119.0719520912067,31.29615530480597,"南京振兴路180号、胥溪路9号","2016年06月01日"
0,"翠屏诚园",118.8280407907806,31.93865135451429,"南京秣陵街道双龙大道3000号","2017年06月19日"
0,"银城一方山",118.7826673542676,31.87887139529194,"南京江宁区淳化街道吉印大道4199号","2015年11月13日"
0,"福基九龙新城",118.7524633586139,32.20981431972356,"南京大厂凤滨路18号","2011年05月06日"
0,"银城一方山",118.7826673542676,31.87887139529194,"南京江宁区淳化街道吉印大道4199号","2016年01月01日"
0,"万科璞悦山",118.6060568663432,32.07654420774322,"南京江浦街道沿山大道231号","2017年04月25日"
0,"天泽苑",118.8574259557579,31.92671560623449,"南京江宁区秣陵街道竹山路588号","2014年07月09日"
" 16000","绿城玫瑰园",118.6799225835972,32.12458527108175,"南京位处南京唯一省级旅游度假区——珍珠泉旅游度假区密林深处","2014年09月27日"
0,"石林大公园",118.6658627944333,31.93439038369555,"南京凤集大道6号","2012年08月08日"
0,"双富嘉园",118.9997817069633,31.39118273972735,"南京双牌石大街288号","2017年01月07日"
0,"启迪方洲博园",118.9328094751541,32.05707979090446,"南京麒麟街道智通路189号","2016年07月16日"
0,"恒基富荟山",118.9121476516276,32.11865857092845,"南京栖霞文鼎路1号（玄武大道与学林路交汇处）","2014年10月30日"
0,"五矿晏山居",118.875564098649,32.04411168263164,"南京钟灵街50号","2017年07月14日"
0,"中航樾公馆",118.8825393493068,31.96261662397859,"南京淳化街道泉东路58号","2017年07月03日"
0,"瑞景叶泊蓝山",118.7785771896195,31.84979622406829,"南京江宁丹阳大道110号","2012年10月02日"
0,"金轮津桥华府",118.9160844072539,31.90070775306782,"南京江宁区淳化街道修文路3号","2016年07月22日"
0,"隆豪翡翠星城",118.9086572172974,31.33550078621485,"南京淳溪镇宝塔路350号","2017年07月02日"
0,"爱涛尚书云邸",118.8628351886235,31.96778185542975,"南京文靖路599号","2016年03月09日"
0,"亚泰山语湖",118.7780744080256,32.05723550180587,"南京永固路3号","2017年09月08日"
0,"中交锦兰荟",118.7780744080256,32.05723550180587,"南京卓溪路10号","2016年07月07日"
0,"中宏万家广场",118.887211520705,31.33227603008732,"南京淳溪路北漪路129号","2015年09月16日"
0,"金浦御龙湾",118.8224231671546,32.11951519928469,"南京和燕路390号","2017年07月21日"
0,"清香雅苑",118.8414109786006,32.36091588708788,"南京雄州街道园林西路188号","2016年12月29日"
0,"中南锦苑",118.7565149652946,31.98425669945897,"南京软件大道中南锦苑","2016年09月03日"
0,"世茂梦享家",118.7780744080256,32.05723550180587,"南京淳化街道瑞文路199号","2016年04月30日"
0,"武夷名仕园",118.9415681110799,31.94393485349766,"南京淳化街道平和路8号","2015年10月21日"
0,"湖滨一品苑",118.9016733473982,31.32472543477154,"南京淳南路117号","2011年04月20日"
0,"红太阳国际财智广场",118.9089895903361,31.33618242769404,"南京高淳淳溪镇宝塔路269号","2016年04月10日"
0,"万悦城",118.9519791045336,31.36982009066363,"南京九龙山路万悦城","2017年05月03日"
0,"东方曼园",118.9183032533042,31.34619952265706,"南京高淳淳溪镇慢城大道68号（高淳新体育中心北侧）","2016年01月23日"
0,"高科荣境",118.9883087451717,32.1266799019819,"南京守敬路313号","2012年10月23日"
0,"中航金城1号",118.8124936124543,32.04625634408737,"南京中山东路518号","2015年10月30日"
0,"银亿东城",118.9587943427258,32.05897989166949,"南京麒麟街道麒东路777号","2016年11月17日"
0,"中航樾广场",118.8958358671434,31.93778256467123,"南京淳化街道经贸学院路8号","2015年12月12日"
0,"五矿九玺台",118.8924194468991,31.91449917688987,"南京丽泽路599号","2013年01月20日"
0,"保利朗诗蔚蓝",118.8285107285585,32.11727147830998,"南京迈皋桥街道迈化路376号","2017年12月06日"
0,"新城花漾紫郡",118.7203713924734,32.18964133869749,"南京丹霞路新城花漾紫郡","2016年10月22日"
0,"旭辉银城白马澜山",118.6363220976868,32.08258412514195,"南京浦口区白马路与狮山路交汇处","2017年12月25日"
0,"金盛财智广场",118.7825485982791,32.09657697768183,"南京建宁路31号","2012年09月16日"
0,"东屏湖9号",119.1193563457991,31.6981926823435,"南京南京溧水县东屏镇","2013年01月24日"
0,"弘阳时光里",118.7202169755528,32.15360821286647,"南京蓝海路弘阳时光里","2017年06月24日"
0,"金地浅山艺境",118.6578035046182,32.09415726915299,"南京七里桥北路金地浅山艺境","2016年08月14日"
0,"明发浦泰梦幻家",118.6430800141062,31.93376110608547,"南京凤汇大道明发浦泰梦幻家","2017年09月05日"
0,"禹洲吉庆里",118.7665036060398,32.01411065563163,"南京赛虹桥街道禹洲吉庆里","2016年05月26日"
0,"弘阳爱上城",118.7780744080256,32.05723550180587,"南京秦山街道123地块","2015年11月20日"
0,"高科荣境",118.9883087451717,32.1266799019819,"南京守敬路313号","2013年11月01日"
0,"中垠紫金观邸",118.9212002571332,32.06172635208976,"南京马群街道中垠紫金观邸","2017年12月20日"
0,"东方兰园",118.8411746011836,32.1312287642796,"南京栖霞经五路与迈化路交汇处","2016年07月28日"
0,"富力城",118.8880298392957,32.0159535024171,"南京东麒路277号","2012年11月29日"
0,"中海玄武公馆",118.8280283536893,32.10309198480382,"南京恒嘉路中海玄武公馆","2017年03月30日"
0,"万科安品园舍",118.7658904209021,31.96501540606923,"南京仓家巷万科安品园舍","2016年06月20日"
0,"泰禾南京院子",118.7876904990183,32.02678884399369,"南京中山南路501号","2017年06月06日"
0,"金地中心风华",118.7023798602279,31.98198025715574,"南京江东南路金地中心风华","2017年11月19日"
0,"旭辉铂悦秦淮",118.7953806229975,31.97484130113306,"南京东山街道农花路102号","2017年07月"
0,"中国铁建原香颂",118.6161343435623,31.86547801206223,"南京宁桥南路108号","2017年09月30日"
0,"东城金茂悦",118.8616884154027,31.96591066251838,"南京文靖东路88号","2017年07月03日"
0,"金象朗诗红树林",118.7392534167675,32.13216951340183,"南京江山路6号","2017年10月28日"
0,"锦绣华府",118.7493567486688,32.09924085699888,"南京龙江路（南京西站西侧）","2016年05月21日"
0,"世茂荣里",118.8425121978507,32.35058780785138,"南京浦珠路荣里","2018年01月14日"
0,"银城蓝溪郡",118.8455118142197,31.84077395985172,"南京秣陵街道创新东路2号","2015年10月01日"
0,"弘阳春上西江",118.6755756832345,31.94787057866818,"南京龙藏大道12号弘阳","2016年11月27日"
0,"喜之郎丽湖湾",119.037363657698,31.68455722058429,"南京珍珠北路88号","2015年12月25日"
0,"金辉金陵铭著",118.8205877286756,31.95061810100132,"南京胜太路金辉金陵铭著","2016年11月17日"
0,"华新城璟园",118.7285635210123,32.00753202172349,"南京建邺区巴山路38号","2016年05月15日"
0,"银城东岳府",118.8481980225761,32.02531101050593,"南京海福巷71号","2017年03月30日"
0,"和昌湾景",118.6755581258533,31.9254387597965,"南京新湖大道和昌湾景","2017年07月03日"
0,"中交锦致",118.8108576885273,31.97475979445248,"南京明城大道以西中交锦致","2017年07月15日"
0,"善水湾花园",118.7366966443538,31.95870496486962,"南京梅兴路善水湾花园","2013年03月30日"
0,"北辰旭辉铂悦金陵",118.7317027636201,32.02749451018207,"南京乐山路99号","2017年03月29日"
0,"禹洲弘阳滨湖里",118.6007757659789,31.85944816110854,"南京润寿北路599号","2016年12月24日"
0,"朗诗熙华府",118.6971894968048,31.9753392209019,"南京南高庙路朗诗熙华府","2017年11月20日"
0,"金山府",118.8482985882074,31.94167905365522,"南京金山路95号","2015年05月15日"
" 2480","东墅山庄英郡华府",118.9361444675972,32.098719710952,"南京灵山北路9号","2014年05月03日"
0,"福晟庭院",118.9942492934075,31.61270349778846,"南京金牛北路369号","2015年10月30日"
0,"紫晶未来城",118.8441701230762,32.34349204726423,"南京雄州街道双客路97号","2016年09月07日"
0,"华洲青林湾",119.0099776747796,31.64624185053865,"南京天生桥大道218号","2017年09月01日"
0,"香缇郡",118.8191818949254,32.32315501050959,"南京龙池街道龙口路9号","2016年10月20日"
0,"富力水街坊",118.8946102244954,32.01788978803834,"南京麒麟科技创新园东麒路666号","2017年12月11日"
0,"蓝光公园1号",118.8349344518907,32.09147390223099,"南京华新路蓝光公园1号","2017年06月17日"
0,"龙湖春江紫宸",118.7401252905362,32.09451676879395,"南京江边路1号","2017年03月30日"
0,"乐基广场",118.7509886733396,32.04035147114477,"南京云锦路所街","2014年11月26日"
0,"中海玄武公馆",118.8280283536893,32.10309198480382,"南京恒嘉路中海玄武公馆","2017年03月30日"
0,"明发阅山悦府",118.6444257242686,32.08114358586541,"南京沿山大道和花卉大道交汇处","2017年11月14日"
0,"梅龙湖无界",118.931336495762,31.95417020582323,"南京淳化镇西山头","2015年10月15日"
0,"华辉秦淮湾",118.8807894148401,31.32867042217781,"南京宝塔路98号","2017年06月05日"
0,"万科星荟",118.8108576885273,31.97475979445248,"南京明城大道万科都荟南苑","2017年07月12日"
0,"招商兰溪谷",119.0485989012537,31.65760622534108,"南京永新路招商兰溪谷","2017年11月02日"
0,"碧桂园S1秦淮世家",118.9151434340288,31.64831174257394,"南京横山西路碧桂园S1秦淮世家","2017年11月30日"
0,"钟山颐府",118.8132103416749,32.04676420264064,"南京中山东路301号","2016年06月01日"
0,"汤城汇",119.0656405697445,32.04829213296588,"南京南京市江宁区汤山国际温泉城圣汤大道9号","2015年02月12日"
0,"锦绣江山花园",118.7555719448312,32.11157894414232,"南京宝塔桥西街155号","2016年11月25日"
0,"电建中储泛悦城市广场",118.7923442057466,32.10079520126077,"南京小市街道电建中储泛悦城市广场","2017年06月09日"
0,"中国铁建青秀城",118.8363707265197,32.12249472554185,"南京迈尧路327号","2014年12月20日"
0,"绿城深蓝",118.8372024945406,31.95895244367625,"南京东山街道富塘街8号","2017年06月14日"
0,"万科大都会",118.7780744080256,32.05723550180587,"南京站东二路万科大都会","2017年07月26日"
0,"世茂君望墅",118.8733383599005,32.01084449714471,"南京石杨路107号","2015年09月26日"
0,"新城璞樾和山",118.8522555850222,32.04095857741548,"南京钟山路新城璞樾和山","2018年01月05日"
0,"顾家欧亚达商业广场",119.0515594727738,31.65972901381616,"南京南京市溧水区秦淮路159-21号","2015年11月12日"
0,"中南锦苑",118.7565149652946,31.98425669945897,"南京软件大道中南锦苑","2017年03月22日"
0,"森湖溪谷",119.011088030192,31.57796543964531,"南京傅家边现代农业园区内","2009年07月17日"
0,"弘阳禹洲时光印象",119.0184714726702,31.65793046940463,"南京栖凤路68号","2017年12月27日"
0,"金鼎湾如院",118.7697317594154,32.08261037776124,"南京中山北路279号","2015年10月17日"
0,"21世纪百家湖1号",118.828537515049,31.93233544350249,"南京双龙大道1539号","2013年07月16日"
0,"万景佳苑",119.0290499741997,31.68779810083245,"南京红光路19号","2016年10月10日"
" 900","富力十号",118.8880298392957,32.0159535024171,"南京东麒路277号","2015年06月02日"
0,"海尔双湖壹号公馆",118.9719600879411,31.39315094089743,"南京双湖路1号","2017年06月26日"
0,"中建国熙台",118.657872540295,32.07513036448952,"南京新浦路中建国熙台","2017年06月16日"
0,"万宇汽车五金博览中心",118.9415681110799,31.94393485349766,"南京淳化街道龙凤路2号","2016年05月25日"
0,"天生御景",119.0050632146112,31.63670526355452,"南京洪蓝镇凤凰井路26号","2014年10月17日"
0,"弘阳燕江府",118.8368259203793,32.14336419823352,"南京太新路弘阳燕江府","2017年06月30日"
0,"南京金奥中心",118.7318633124557,32.00379988188208,"南京江东中路333号","2013年12月17日"
0,"金牛湖度假中心",118.9754313200928,32.47562584733648,"南京金牛湖街道金牛湖社区88号","2013年12月17日"
0,"保利天悦",118.7325477448983,32.03108091466837,"南京应天大街保利天悦","2017年11月18日"
0,"绿城桃花源",118.8039790524237,32.05075472091002,"南京汤山街道麒麟门大道6699号","2017年04月22日"
0,"通宇林景熙园",118.644523753654,32.06639466682562,"南京江浦街道七里路与沿山大道交汇处","2017年08月02日"
0,"绿地华侨城海珀滨江",118.6956499799235,31.98139662120764,"南京龙王大街绿地华侨城海珀滨江","2017年11月20日"
0,"龙湖新壹城",118.9095263107027,31.91533659302094,"南京龙眠大道660号","2017年10月25日"
0,"仙林汽配城",118.9030966199533,32.11716870711489,"南京王子楼西108号","2017年08月04日"
0,"钟鼎名悦广场",118.8701256700458,32.04432304290161,"南京中山门大街297号","2017年09月16日"
0,"奥克斯钟山府",118.9139651033354,32.09514392116203,"南京文枢西路奥克斯钟山府","2018年01月29日"
0,"秦淮源筑",119.0333373059784,31.67690408294747,"南京双塘南路68号","2017年11月29日"
0,"明发北站新城",118.8014603106721,32.04955537268256,"南京长江路西侧明发北站新城","2017年11月22日"
0,"雅居乐林语城",118.7780744080256,32.05723550180587,"南京汊河新城雅居乐林语城","2017年12月16日"
" 29300","融创玉兰公馆",118.8267047912492,32.14269896527448,"南京燕子矶街道融创玉兰公馆","2018年02月25日"
0,"九间堂",118.786921917807,31.91851637664588,"南京康厚街10号","2017年04月06日"
0,"葛洲坝招商紫郡兰园",118.8398094642662,32.12682692032765,"南京和燕路葛洲坝招商紫郡蘭园","2017年10月"
" 23800","万科金域东方",118.9415681110799,31.94393485349766,"南京淳化街道梨树园路9号","2017年11月01日"
0,"新城璞樾钟山",118.9177116598378,32.08330568277308,"南京奔马路新城璞樾钟山","2017年12月02日"
" 28800","金浦紫御东方",118.8411746011836,32.1312287642796,"南京经五路金浦紫御东方","2017年11月06日"
" 23000","弘阳禹洲时光春晓",118.7780744080256,32.05723550180587,"南京梨树园路10号","2017年11月01日"
" 23000","花样年喜年中心",118.7883423094963,32.1027477897518,"南京鼓楼区中央北路河路道1号","2016年09月21日"
" 29000","嘉誉山",118.8444981320636,32.11081415881797,"南京兴贤路19号","2017年07月09日"
0,"融创臻园",118.6190333484689,32.0621065277938,"南京雨山西路和广电南路交汇处","2017年12月07日"
0,"融创玉兰公馆",118.8495515228439,32.15160833098263,"南京燕子矶街道融创玉兰公馆","2018年02月25日"
0,"新城璞樾钟山",118.9177116598378,32.08330568277308,"南京奔马路新城璞樾钟山","2017年12月02日"
" 29000","嘉誉山",118.8445733316993,32.11082742604975,"南京兴贤路19号","2017年07月09日"
" 23600","弘阳禹洲时光春晓",118.9482089800879,31.93407601061809,"南京梨树园路10号","2018年01月10日"
" 2200","九间堂",118.7884886883792,31.92303000915643,"南京康厚街10号","2018年04月08日"
0,"葛洲坝招商紫郡兰园",118.8395779098515,32.1265750663835,"南京和燕路葛洲坝招商紫郡蘭园","2017年10月"
" 23800","万科金域东方",118.9482089800879,31.93407601061809,"南京淳化街道梨树园路9号","2018年03月24日"
" 23000","花样年喜年中心",118.7883423094963,32.1027477897518,"南京鼓楼区中央北路河路道1号","2016年09月21日"
" 28600","金浦紫御东方",118.8411746011836,32.1312287642796,"南京经五路金浦紫御东方","2017年11月06日"
0,"融创臻园",118.6190333484689,32.0621065277938,"南京雨山西路和广电南路交汇处","2017年12月07日"
0,"融创玉兰公馆",118.8495515228439,32.15160833098263,"南京燕子矶街道融创玉兰公馆","2018年02月25日"
" 29000","嘉誉山",118.8445733316993,32.11082742604975,"南京兴贤路19号","2017年07月09日"
" 28600","金浦紫御东方",118.8411746011836,32.1312287642796,"南京经五路金浦紫御东方","2017年11月06日"
" 23000","花样年喜年中心",118.7883423094963,32.1027477897518,"南京鼓楼区中央北路河路道1号","2016年09月21日"
" 2200","九间堂",118.7884886883792,31.92303000915643,"南京康厚街10号","2018年04月08日"
0,"葛洲坝招商紫郡兰园",118.8395779098515,32.1265750663835,"南京和燕路葛洲坝招商紫郡蘭园","2017年10月"
" 23800","万科金域东方",118.9482089800879,31.93407601061809,"南京淳化街道梨树园路9号","2018年03月24日"
0,"新城璞樾钟山",118.9177116598378,32.08330568277308,"南京奔马路新城璞樾钟山","2017年12月02日"
" 23600","弘阳禹洲时光春晓",118.9482089800879,31.93407601061809,"南京梨树园路10号","2018年01月10日"
0,"融创臻园",118.6190333484689,32.0621065277938,"南京雨山西路和广电南路交汇处","2017年12月07日"
0,"融创玉兰公馆",118.8495515228439,32.15160833098263,"南京燕子矶街道融创玉兰公馆","2018年02月25日"
" 29000","嘉誉山",118.8445733316993,32.11082742604975,"南京兴贤路19号","2017年07月09日"
" 28600","金浦紫御东方",118.8411746011836,32.1312287642796,"南京经五路金浦紫御东方","2017年11月06日"
0,"新城璞樾钟山",118.9177116598378,32.08330568277308,"南京奔马路新城璞樾钟山","2017年12月02日"
" 2200","九间堂",118.7884886883792,31.92303000915643,"南京康厚街10号","2018年04月08日"
0,"葛洲坝招商紫郡兰园",118.8395779098515,32.1265750663835,"南京和燕路葛洲坝招商紫郡蘭园","2017年10月"
" 23800","万科金域东方",118.9482089800879,31.93407601061809,"南京淳化街道梨树园路9号","2018年03月24日"
" 23000","花样年喜年中心",118.7883423094963,32.1027477897518,"南京鼓楼区中央北路河路道1号","2016年09月21日"
" 23600","弘阳禹洲时光春晓",118.9482089800879,31.93407601061809,"南京梨树园路10号","2018年01月10日"
0,"融创臻园",118.6190333484689,32.0621065277938,"南京雨山西路和广电南路交汇处","2017年12月07日"
0,"融创玉兰公馆",118.8495515228439,32.15160833098263,"南京燕子矶街道融创玉兰公馆","2018年02月25日"
0,"新城璞樾钟山",118.9177116598378,32.08330568277308,"南京奔马路新城璞樾钟山","2017年12月02日"
" 23000","花样年喜年中心",118.7883423094963,32.1027477897518,"南京鼓楼区中央北路河路道1号","2016年09月21日"
" 28600","金浦紫御东方",118.8411746011836,32.1312287642796,"南京经五路金浦紫御东方","2017年11月06日"
" 23600","弘阳禹洲时光春晓",118.9482089800879,31.93407601061809,"南京梨树园路10号","2018年01月10日"
" 2200","九间堂",118.7884886883792,31.92303000915643,"南京康厚街10号","2018年04月08日"
0,"葛洲坝招商紫郡兰园",118.8395779098515,32.1265750663835,"南京和燕路葛洲坝招商紫郡蘭园","2017年10月"
" 29000","嘉誉山",118.8445733316993,32.11082742604975,"南京兴贤路19号","2017年07月09日"
" 23800","万科金域东方",118.9482089800879,31.93407601061809,"南京淳化街道梨树园路9号","2018年03月24日"
0,"融创玉兰公馆",118.8495515228439,32.15160833098263,"南京燕子矶街道融创玉兰公馆","2018年02月25日"
0,"融创臻园",118.6190333484689,32.0621065277938,"南京雨山西路和广电南路交汇处","2017年12月07日"
" 29000","嘉誉山",118.8445733316993,32.11082742604975,"南京兴贤路19号","2017年07月09日"
0,"新城璞樾钟山",118.9177116598378,32.08330568277308,"南京奔马路新城璞樾钟山","2017年12月02日"
" 28600","金浦紫御东方",118.8411746011836,32.1312287642796,"南京经五路金浦紫御东方","2017年11月06日"
" 23000","花样年喜年中心",118.7883423094963,32.1027477897518,"南京鼓楼区中央北路河路道1号","2016年09月21日"
0,"葛洲坝招商紫郡兰园",118.8395779098515,32.1265750663835,"南京和燕路葛洲坝招商紫郡蘭园","2017年10月"
" 2200","九间堂",118.7884886883792,31.92303000915643,"南京康厚街10号","2018年04月08日"
" 23800","万科金域东方",118.9482089800879,31.93407601061809,"南京淳化街道梨树园路9号","2018年03月24日"
" 23600","弘阳禹洲时光春晓",118.9482089800879,31.93407601061809,"南京梨树园路10号","2018年01月10日"
0,"融创臻园",118.6190333484689,32.0621065277938,"南京雨山西路和广电南路交汇处","2017年12月07日"
0,"融创玉兰公馆",118.8495515228439,32.15160833098263,"南京燕子矶街道融创玉兰公馆","2018年02月25日"
0,"新城璞樾钟山",118.9177116598378,32.08330568277308,"南京奔马路新城璞樾钟山","2017年12月02日"
" 23000","花样年喜年中心",118.7883423094963,32.1027477897518,"南京鼓楼区中央北路河路道1号","2016年09月21日"
" 28600","金浦紫御东方",118.8411746011836,32.1312287642796,"南京经五路金浦紫御东方","2017年11月06日"
" 29000","嘉誉山",118.8445733316993,32.11082742604975,"南京兴贤路19号","2017年07月09日"
" 2200","九间堂",118.7884886883792,31.92303000915643,"南京康厚街10号","2018年04月08日"
0,"葛洲坝招商紫郡兰园",118.8395779098515,32.1265750663835,"南京和燕路葛洲坝招商紫郡蘭园","2017年10月"
" 23600","弘阳禹洲时光春晓",118.9482089800879,31.93407601061809,"南京梨树园路10号","2018年01月10日"
" 23800","万科金域东方",118.9482089800879,31.93407601061809,"南京淳化街道梨树园路9号","2018年03月24日"
0,"融创臻园",118.6190333484689,32.0621065277938,"南京雨山西路和广电南路交汇处","2017年12月07日"
0,"融创玉兰公馆",118.8495515228439,32.15160833098263,"南京燕子矶街道融创玉兰公馆","2018年02月25日"
" 29000","嘉誉山",118.8445733316993,32.11082742604975,"南京兴贤路19号","2017年07月09日"
" 23000","花样年喜年中心",118.7883423094963,32.1027477897518,"南京鼓楼区中央北路河路道1号","2016年09月21日"
" 23600","弘阳禹洲时光春晓",118.9482089800879,31.93407601061809,"南京梨树园路10号","2018年01月10日"
" 2200","九间堂",118.7884886883792,31.92303000915643,"南京康厚街10号","2018年04月08日"
0,"葛洲坝招商紫郡兰园",118.8395779098515,32.1265750663835,"南京和燕路葛洲坝招商紫郡蘭园","2017年10月"
" 23800","万科金域东方",118.9482089800879,31.93407601061809,"南京淳化街道梨树园路9号","2018年03月24日"
0,"新城璞樾钟山",118.9177116598378,32.08330568277308,"南京奔马路新城璞樾钟山","2017年12月02日"
" 28600","金浦紫御东方",118.8411746011836,32.1312287642796,"南京经五路金浦紫御东方","2017年11月06日"
" 29000","嘉誉山",118.8445733316993,32.11082742604975,"南京兴贤路19号","2017年07月09日"
0,"新城璞樾钟山",118.9177116598378,32.08330568277308,"南京奔马路新城璞樾钟山","2017年12月02日"
" 28600","金浦紫御东方",118.8411746011836,32.1312287642796,"南京经五路金浦紫御东方","2017年11月06日"
" 23000","花样年喜年中心",118.7883423094963,32.1027477897518,"南京鼓楼区中央北路河路道1号","2016年09月21日"
" 23600","弘阳禹洲时光春晓",118.9482089800879,31.93407601061809,"南京梨树园路10号","2018年01月10日"
" 2200","九间堂",118.7884886883792,31.92303000915643,"南京康厚街10号","2018年04月08日"
0,"融创臻园",118.6190333484689,32.0621065277938,"南京雨山西路和广电南路交汇处","2017年12月07日"
" 23800","万科金域东方",118.9482089800879,31.93407601061809,"南京淳化街道梨树园路9号","2018年03月24日"
0,"融创玉兰公馆",118.8495515228439,32.15160833098263,"南京燕子矶街道融创玉兰公馆","2018年02月25日"
0,"葛洲坝招商紫郡兰园",118.8395779098515,32.1265750663835,"南京和燕路葛洲坝招商紫郡蘭园","2017年10月"
" 29000","嘉誉山",118.8445733316993,32.11082742604975,"南京兴贤路19号","2017年07月09日"
0,"新城璞樾钟山",118.9177116598378,32.08330568277308,"南京奔马路新城璞樾钟山","2017年12月02日"
" 28600","金浦紫御东方",118.8411746011836,32.1312287642796,"南京经五路金浦紫御东方","2017年11月06日"
" 23000","花样年喜年中心",118.7883423094963,32.1027477897518,"南京鼓楼区中央北路河路道1号","2016年09月21日"
" 23600","弘阳禹洲时光春晓",118.9482089800879,31.93407601061809,"南京梨树园路10号","2018年01月10日"
0,"融创臻园",118.6190333484689,32.0621065277938,"南京雨山西路和广电南路交汇处","2017年12月07日"
" 2200","九间堂",118.7884886883792,31.92303000915643,"南京康厚街10号","2018年04月08日"
" 23800","万科金域东方",118.9482089800879,31.93407601061809,"南京淳化街道梨树园路9号","2018年03月24日"
0,"融创玉兰公馆",118.8495515228439,32.15160833098263,"南京燕子矶街道融创玉兰公馆","2018年02月25日"
0,"葛洲坝招商紫郡兰园",118.8395779098515,32.1265750663835,"南京和燕路葛洲坝招商紫郡蘭园","2017年10月"
0,"融创臻园",118.6190333484689,32.0621065277938,"南京雨山西路和广电南路交汇处","2017年12月07日"
0,"融创玉兰公馆",118.8495515228439,32.15160833098263,"南京燕子矶街道融创玉兰公馆","2018年02月25日"
" 29000","嘉誉山",118.8445733316993,32.11082742604975,"南京兴贤路19号","2017年07月09日"
" 23000","花样年喜年中心",118.7883423094963,32.1027477897518,"南京鼓楼区中央北路河路道1号","2016年09月21日"
" 23600","弘阳禹洲时光春晓",118.9482089800879,31.93407601061809,"南京梨树园路10号","2018年01月10日"
" 2200","九间堂",118.7884886883792,31.92303000915643,"南京康厚街10号","2018年04月08日"
0,"葛洲坝招商紫郡兰园",118.8395779098515,32.1265750663835,"南京和燕路葛洲坝招商紫郡蘭园","2017年10月"
" 23800","万科金域东方",118.9482089800879,31.93407601061809,"南京淳化街道梨树园路9号","2018年03月24日"
0,"新城璞樾钟山",118.9177116598378,32.08330568277308,"南京奔马路新城璞樾钟山","2017年12月02日"
" 28600","金浦紫御东方",118.8411746011836,32.1312287642796,"南京经五路金浦紫御东方","2017年11月06日"
0,"金陵雅颂居",118.8140877346326,32.0310141948896,"南京大光路67号","2016年08月14日"
0,"云栖山庄",118.9641841757857,32.05943738584202,"南京汤山街道阳明路99号","2016年09月11日"
0,"世茂城品",118.7667116904265,31.97666251592093,"南京宁双路世茂城品","2017年06月23日"
0,"新城香悦澜山",118.9822212970358,32.131600315832,"南京纬地路新城香悦澜山","2017年04月10日"
0,"雍福龙庭",118.7979409742604,31.91281860314555,"南京将军大道129号","2017年01月25日"
" 32000","恒大翡翠华庭",118.828241033807,32.10494908615794,"南京华飞路1号","2017年07月05日"
0,"苏宁钟山朝阳府",118.8980239749758,32.0913139891331,"南京玄武大道苏宁钟山朝阳府","2016年05月08日"
0,"中建国熙台",118.6536929089097,32.06590199137902,"南京新浦路中建国熙台","2017年12月02日"
" 25500","融侨观邸",118.6341269686986,32.08509008337853,"南京海院路88号","2017年07月02日"
0,"罗托鲁拉小镇",118.8647752581351,31.91520232380234,"南京秣陵街道竹山南路688号","2017年11月18日"
0,"明发云庭",118.6273049554862,32.04649210448395,"南京江浦街道胡桥路9号","2018年02月09日"
0,"骋望云邸",118.9026815093839,32.10341702868925,"南京鹤鸣路68号","2015年12月19日"
" 32000","高科荣境桂山堂",118.9883087451717,32.1266799019819,"南京守敬路313号","2017年07月16日"
" 28000","雅居乐滨江国际",118.6781901879467,32.06813815781693,"南京天浦路96号","2017年11月06日"
" 27800","明发珠江国际",118.7780744080256,32.05723550180587,"南京张敦路59号","2016年04月15日"
0,"恒大华府",118.7641008876313,31.99525360625542,"南京雨花台区赛虹桥街道","2017年02月13日"
" 500","尚峰尚水",118.5145126700257,32.09785265155924,"南京汤泉街道尚峰尚水","2017年04月22日"
0,"华润新悦天地",118.765894137192,32.02198720429714,"南京所街7号","2016年08月08日"
" 643","金隅紫京府",118.7421926822775,31.99647068073844,"南京泰山路金隅紫金府","2017年12月30日"
0,"骋望七里楠花园",118.8184407542525,32.31827364260565,"南京龙池街道龙华路66号","2016年08月19日"
0,"中锐星湖名邸",118.8007147162005,32.04694030889066,"南京天元路中路128号","2017年04月23日"
0,"融侨悦城",118.8869047026614,31.96219111571692,"南京东山街道万安南路9号","2018年03月30日"
" 24300","北江锦城",118.6206637747662,32.05876455593678,"南京雨山西路89号","2017年11月01日"
0,"滟紫台",118.7882627196281,31.94294979560223,"南京将军大道韩府路18号","2014年10月30日"
0,"都市丽景",118.8609103364073,31.95098423673667,"南京莱茵达路12号","2017年01月22日"
0,"中浩山屿湖",118.7292404544005,31.7599655424243,"南京横溪街道甘泉湖路1号","2017年06月12日"
0,"保利西江月",118.6645215740018,32.04810818480485,"南京城南河路保利西江月","2017年05月27日"
" 23000","牧龙原墅",118.7780744080256,32.05723550180587,"南京滨溪大道1000号","2015年04月24日"
0,"紫金华府",118.8854034320355,32.04480227079186,"南京顾家营路紫金华府","2017年12月25日"
0,"南京碧桂园",118.7125232403854,31.88697832396671,"南京牛首大道庆兴路8号","2017年09月05日"
" 25000","路易庄园",118.6206637747662,32.05876455593678,"南京雨山西路89号","2018年01月19日"
0,"荣盛花语城",118.8513362232311,32.32446249240832,"南京龙池街道林场路1号","2017年08月05日"
0,"中粮祥云",118.9062613466718,31.92465484995038,"南京淳化街道鹏山路28号","2016年11月05日"
0,"恒大龙珺",118.9296173797617,32.02524213109228,"南京麒麟街道袁家边路9号","2017年07月08日"
0,"鲁能泰山7号院",118.7780744080256,32.05723550180587,"南京格致西路1号","2017年07月19日"
0,"九龙湖别墅",118.8140674437078,31.91976552926573,"南京秣陵街道清水亭西路188号","2016年11月18日"
0,"荣盛华府",118.8481243435581,32.33635869765098,"南京雄州街道桥西路162号","2017年07月15日"
" 13500","卧龙湖小镇",119.0553388291052,31.73120374609378,"南京卧龙湖大道1号","2018年02月03日"
0,"世茂招商语山",118.9136695608227,32.07140443035624,"南京金马路世茂招商语山","2016年10月29日"
0,"保利中央公园东苑",118.8330420815034,31.91477073900939,"南京秣陵街道长亭街59号","2017年06月15日"
" 25800","弘阳燕江府",118.8340742084835,32.14416255725624,"南京太新路弘阳燕江府","2016年12月29日"
0,"金盛田阳光青城",118.8147607037986,32.32157817364182,"南京龙华路8号","2016年06月12日"
" 18500","华润幸福里",118.8973247339668,32.13880981806992,"南京尧化街道前塘路9号","2017年09月30日"
0,"禹洲映月溪山",118.7366966443538,31.95870496486962,"南京善水湾西侧禹洲映月溪山","2017年04月28日"
0,"武夷绿洲沁荷苑",118.846294764726,31.93623568074372,"南京天元中路99号","2017年07月03日"
0,"大吉公元",118.5248328322161,32.09369697857316,"南京汤泉镇江星桥线","2016年09月14日"
" 1762","鸿信云深处",118.9559512057867,32.00015966099539,"南京东山街道神凤路1169号","2013年07月14日"
0,"中航国际社区",118.8495515228439,32.15160833098263,"南京燕子矶街道中航国际社区","2017年10月30日"
" 11500","荣盛鹭岛荣府",118.8189743899458,32.5387256198191,"南京马鞍街道鹭岛南路3号","2018年03月24日"
" 900","碧桂园湖光山色",118.7319854379881,31.86572391505143,"南京谷里街道悦湖路16号","2017年12月23日"
0,"景枫你山",118.9036931810493,31.90215849113093,"南京弘景大道3888号","2016年08月26日"
0,"东方熙龙山院",118.6349031280151,32.08732150414787,"南京白马路90号","2012年12月20日"
" 38700","深业滨江半岛",118.7461778251301,32.10314358339629,"南京龙江路30号","2017年12月25日"
" 43000","银城君颐东方",118.8968338818701,32.05156767640222,"南京马群街169号","2017年12月02日"
" 25800","电建海赋尚城",118.8429568887222,32.137634319277,"南京经五路电建海赋尚城","2018年01月"
" 8500","花样年花样城",118.9272283247083,31.3449842161952,"南京双高路50号","2017年12月06日"
" 864","长发都市诸公",118.7849717773923,31.99997241005109,"南京雨花南路5号","2015年10月24日"
0,"大发融悦",118.8757772890042,32.03761727573808,"南京双拜岗路大发融悦","2016年04月26日"
0,"景湖名都",118.9751052783113,31.31262210058944,"南京高淳固城镇育才西路91号（宁宣公路东侧）","2014年11月12日"
0,"招商1872公园里",118.8395779098515,32.1265750663835,"南京钟燕东路招商1872公园里","2017年03月08日"
" 15000","江岸景城",118.4751745036245,31.86526441060137,"南京乌江故居路8号","2015年02月08日"
" 20000","瑞安翠湖山",118.7516557478249,31.91895445421006,"南京牛首山大道121号","2018年04月03日"
0,"梁台煦府",118.9767422251149,31.87359481459602,"南京湖熟街道润湖大道398号","2016年12月10日"
" 25000","山河水花园",118.5246071329567,32.09294316228797,"南京汤泉镇假日路8号","2014年04月30日"
0,"海玥名都",118.7421060189721,32.02460861962323,"南京月安街11号","2017年04月21日"
0,"九月森林",118.6223212670084,32.08342667185487,"南京黄山岭路九月森林","2018年03月24日"
" 24600","大华锦绣华城香鸢美颂",118.7294785053607,32.1235233911917,"南京浦珠北路59号","2017年11月25日"
" 19000","景瑞春风十里",118.7728226445226,31.86138035874453,"南京吉山大道9号","2017年06月06日"
0,"紫金铭苑",118.8132958055628,32.12191964138096,"南京幕府东路228号","2017年07月24日"
0,"明发浦泰梦幻家",118.6477834195869,31.92740779796182,"南京凤汇大道明发浦泰梦幻家","2017年09月05日"
0,"紫艺华府",118.7780744080256,32.05723550180587,"南京松杨路紫艺华府","2018年01月19日"
0,"中交锦致",118.8108576885273,31.97475979445248,"南京明城大道以西中交锦致","2017年07月15日"
0,"红太阳国际财智广场",118.9089895903361,31.33618242769404,"南京高淳淳溪镇宝塔路269号","2016年04月10日"
0,"弘阳爱上城",118.7780744080256,32.05723550180587,"南京秦山街道123地块","2015年11月20日"
0,"万悦城",118.9519791045336,31.36982009066363,"南京九龙山路万悦城","2017年05月03日"
" 8300","海尔双湖壹号公馆",118.9719600879411,31.39315094089743,"南京双湖路1号","2017年09月27日"
0,"万科安品园舍",118.7659327984646,31.9649933148731,"南京仓家巷万科安品园舍","2016年06月20日"
" 22000","凤凰和睿大厦",118.7973636485803,32.03553521855789,"南京太平南路与白下路交界处","时间待定"
0,"弘阳印象华庭",118.7471568514749,32.01816879567414,"南京大桥北路9号","2017年03月01日"
0,"金地中心风华",118.7023798602279,31.98198025715574,"南京江东南路金地中心风华","2017年11月19日"
0,"旭辉铂悦秦淮",118.7953806229975,31.97484130113306,"南京东山街道农花路102号","2017年07月"
0,"中国铁建原香颂",118.6161343435623,31.86547801206223,"南京宁桥南路108号","2017年09月30日"
0,"恒基富荟山",118.9121476516276,32.11865857092845,"南京栖霞文鼎路1号（玄武大道与学林路交汇处）","2014年10月30日"
0,"泰禾南京院子",118.7876904990183,32.02678884399369,"南京中山南路501号","2017年06月06日"
0,"金浦御龙湾",118.8224231671546,32.11951519928469,"南京和燕路390号","2017年07月21日"
0,"仁恒绿洲新岛",118.7084502261862,32.03377176667957,"南京葡园路仁恒绿洲新岛","2017年11月19日"
0,"五矿晏山居",118.875564098649,32.04411168263164,"南京钟灵街50号","2017年07月14日"
" 26500","恒大悦澜湾",118.7780744080256,32.05723550180587,"南京嘉业路8号","2017年11月30日"
0,"复地御钟山二期",118.899664280837,32.05578425340213,"南京马群街道马群街2号","2014年07月19日"
0,"星叶枫情水岸",118.8818924272452,31.94772274332298,"南京衫湖东路18号","2015年03月06日"
0,"罗托鲁拉小镇",118.8647752581351,31.91520232380234,"南京秣陵街道竹山南路688号","2016年04月30日"
0,"银城一方山",118.7826673542676,31.87887139529194,"南京江宁区淳化街道吉印大道4199号","2016年01月01日"
0,"朗诗青春街区",118.860522997851,31.78379644297444,"南京来凤路18号","2017年11月30日"
" 23000","山水云房花园",118.7078212578206,32.11862130443328,"南京浦珠北路126号","2017年05月22日"
0,"银城一方山",118.7826673542676,31.87887139529194,"南京江宁区淳化街道吉印大道4199号","2015年11月13日"
0,"福基九龙新城",118.7450738842785,32.20769579970177,"南京大厂凤滨路18号","2011年05月06日"
" 28000","天泽苑",118.8574259557579,31.92671560623449,"南京江宁区秣陵街道竹山路588号","2018年02月03日"
0,"石林大公园",118.6658627944333,31.93439038369555,"南京凤集大道6号","2012年08月08日"
0,"中国铁建青秀城",118.8406364398973,32.12259447503586,"南京迈尧路327号","2016年06月04日"
0,"中山首府",119.0438166011933,31.63602130552195,"南京崇文路68号(体育公园南300米)","2017年07月28日"
0,"升龙天汇",118.7051317904119,31.97081643936793,"南京新河路升龙天汇","2017年11月19日"
0,"五矿崇文金城",118.7028254601846,31.97343857482574,"南京吴侯街158号","2017年11月20日"
0,"海峡城",118.6930115416576,31.98708282970404,"南京扬子江大道399号","时间待定"
0,"玄武湖金茂广场御景华府",118.7898749085269,32.07904243541421,"南京中央路201号","2009年11月01日"
0,"正荣润江城",103.9041805595216,36.05269695095417,"南京镇南河路99号","2017年07月05日"
0,"国信自然天城",118.6396559043666,32.09729036743584,"南京浦口区江浦街道沿山东路188号","2008年10月28日"
" 6800","创维乐活城",119.0207176406826,31.69267717506764,"南京团山西路26号","2017年09月29日"
0,"保利堂悦",118.8131260213299,31.98708676552194,"南京汇景北路保利堂悦","2017年01月18日"
" 26000","明发香山郡",118.6273049554862,32.04649210448395,"南京浦口江浦街道沿山大道与财八路交叉口（大马山路6号）","2017年07月22日"
0,"万达茂",118.9886366904625,32.13304989681055,"南京守敬路万达茂","2015年10月"
0,"创源无想墅",118.707219725188,32.10124607362065,"南京珍珠南路199号","2016年01月12日"
" 300","佳兆业城市广场",118.7111427514268,31.97549666288131,"南京太清路佳兆业城市广场","2017年11月19日"
0,"银城蓝溪郡",118.8829081594136,31.8838176413981,"南京秣陵街道创新东路2号","2016年04月16日"
" 29500","星叶瑜憬湾",118.8313789586822,32.10966291802278,"南京迈皋桥街道网板路8号","2018年03月27日"
0,"万科九都荟",118.8123184428798,31.97657188420265,"南京民和路1号","2015年11月17日"
0,"骏景华庭",118.8422311180566,31.92428379087556,"南京秣陵街道铺岗街28号","2015年08月12日"
" 40000","金地浅山艺境",118.6578035046182,32.09415726915299,"南京七里桥北路金地浅山艺境","2016年06月01日"
0,"星叶羊山湖花园",118.9464675340093,32.12228406250346,"南京羊山北路星叶羊山湖花园","2014年10月25日"
0,"万科城",119.0318104111878,31.64794059536451,"南京秀园路6号","2018年03月25日"
0,"艾菲国际",118.7087704083208,32.16648888960027,"南京丽景路艾菲国际","2015年04月25日"
0,"保利礼墅",118.9295337061967,32.11097695649148,"南京仙林街道保利礼墅","2015年06月20日"
" 29000","升龙汇金中心",118.7172690063607,31.98712298032158,"南京江山大街升龙汇金中心","2015年03月15日"
0,"盘金华府",118.7399702187509,32.20805330579511,"南京大厂新华西路458号","2014年06月21日"
0,"城开新都雅苑",118.84800376223,32.33955818255956,"南京雄州街道王桥路28号","预计2017年11月"
0,"长江峰景",118.7403954774776,32.09263358876117,"南京中山北路645号","2010年12月30日"
0,"万科星荟",118.8108576885273,31.97475979445248,"南京明城大道万科都荟南苑","2017年07月12日"
0,"龙海骏景",118.867418077437,32.34747334123522,"南京冶浦路99号","2017年08月03日"
" 25000","南京常发广场",118.8180336457886,32.09260114030094,"南京红山路88号","2015年08月05日"
0,"保利天悦",118.7325477448983,32.03108091466837,"南京应天大街保利天悦","2017年11月18日"
0,"通宇林景熙园",118.6501450746539,32.0913457771416,"南京江浦街道七里路与沿山大道交汇处","2017年08月02日"
0,"天生御景",119.0044347558952,31.63476853301292,"南京洪蓝镇凤凰井路26号","2014年10月17日"
0,"骋望七里楠花园",118.8184407542525,32.31827364260565,"南京龙池街道龙华路66号","2015年02月14日"
0,"梅龙湖无界",118.931336495762,31.95417020582323,"南京淳化镇西山头","2015年10月15日"
0,"碧桂园北岸世家",118.7780744080256,32.05723550180587,"南京滁阳东路901号","2017年07月26日"
0,"金鼎湾如院",118.7697317594154,32.08261037776124,"南京中山北路279号","2015年10月17日"
0,"招商兰溪谷",119.0485989012537,31.65760622534108,"南京永新路招商兰溪谷","2017年11月02日"
0,"21世纪百家湖1号",118.8309498381401,31.93341172700494,"南京双龙大道1539号","2013年07月16日"
" 20000","证大喜玛拉雅中心",118.8108921124928,31.97029556775504,"南京民智路9号、10号、11号、12号、13号","2018年01月06日"
" 9550","嘉恒有山",118.9478479609848,32.45045312201094,"南京金牛湖街道通河路9号","2017年12月16日"
0,"乐基广场",118.7509886733396,32.04035147114477,"南京云锦路所街","2014年11月26日"
" 30000","海峡城",118.6930115416576,31.98708282970404,"南京扬子江大道399号","2016年12月20日"
0,"中海玄武公馆",118.8280283536893,32.10309198480382,"南京恒嘉路中海玄武公馆","2017年03月30日"
0,"弘阳燕江府",118.8340742084835,32.14416255725624,"南京太新路弘阳燕江府","2017年06月30日"
" 420","锦绣华府",118.748732942865,32.10087185564733,"南京龙江路（南京西站西侧）","2016年09月02日"
" 60000","绿地之窗",118.7965695114756,31.97380763395347,"南京南京南站北广场绿地之窗","2017年01月01日"
0,"中国铁建青秀城",118.8406364398973,32.12259447503586,"南京迈尧路327号","2014年12月20日"
" 25600","三金鑫宁府",118.6370190480167,32.05495625325235,"南京珠泉西路三金鑫宁府","2017年12月09日"
" 60000","金轮星立方",118.7817723886575,31.99799477275822,"南京宁南街道金轮星立方","2015年12月04日"
" 17100","江山汇金",118.7650569131626,32.06860445880062,"南京鼓楼区燕江路201号","2014年05月07日"
0,"弘阳春上西江",118.6741629603793,31.94682158034673,"南京龙藏大道12号弘阳","2016年11月27日"
" 50000","绿国万象都荟",118.8020402854551,32.0053428312632,"南京永乐路洪家园1号","2015年11月17日"
0,"中建国熙台",118.6536929089097,32.06590199137902,"南京新浦路中建国熙台","2017年06月16日"
0,"紫晶未来城",118.8441701230762,32.34349204726423,"南京雄州街道双客路97号","2016年09月07日"
0,"浦泰和天下三期",118.7422658842952,32.13531269255433,"南京江山路9号","2017年11月11日"
" 350","融创精彩天地",118.8016949947832,32.09573605816086,"南京黄家圩路融创精彩天地","2016年11月05日"
0,"香缇郡",118.8191838325704,32.32337693059853,"南京龙池街道龙口路9号","2016年10月20日"
" 18500","明发悦庭",118.6543239757169,32.09198071246321,"南京七瑶路7号","2017年09月16日"
" 35900","电建中储泛悦城市广场",118.796087672078,32.10631834473104,"南京小市街道电建中储泛悦城市广场","2017年12月28日"
0,"万科大都会",118.7780744080256,32.05723550180587,"南京站东二路万科大都会","2018年03月30日"
" 30000","新城璞樾和山",118.8522555850222,32.04095857741548,"南京钟山路新城璞樾和山","2018年02月14日"
" 11000","融创中南御园",118.9151160339141,31.34118971800025,"南京水阳江路99号","2018年01月02日"
" 25800","御澜府",118.7187279021191,32.15139493848411,"南京泰山西路御澜府","2017年11月08日"
" 350","保利堂悦",118.8131260213299,31.98708676552194,"南京汇景北路保利堂悦","2016年04月23日"
" 16000","碧桂园大学印象",118.7780744080256,32.05723550180587,"南京宝华大道8号","2017年11月11日"
0,"雅居乐林语城",118.7780744080256,32.05723550180587,"南京汊河新城雅居乐林语城","2017年12月16日"
0,"世茂荣里",118.735183897875,32.13159618531885,"南京浦珠路荣里","2018年03月28日"
" 37000","世茂城品",118.7667116904265,31.97666251592093,"南京宁双路世茂城品","2018年02月01日"
0,"禹洲吉庆里",118.7665036060398,32.01411065563163,"南京赛虹桥街道禹洲吉庆里","2016年05月26日"
" 13500","嘉恒有山",118.9478479609848,32.45045312201094,"南京金牛湖街道通河路9号","2017年12月16日"
" 22000","电建洺悦府",118.7780744080256,32.05723550180587,"南京麦化路611号","2017年12月22日"
" 395","融创玖溪桃花源",118.7780744080256,32.05723550180587,"南京桃溪路1号","2018年03月25日"
" 37500","恒盛金陵湾",118.7469028663716,32.08119544876564,"南京鼓楼区热河南路街道","2017年12月29日"
0,"湖滨一品苑",118.9016733473982,31.32472543477154,"南京淳南路117号","2011年04月20日"
0,"金象朗诗红树林",118.739274526947,32.13233761001818,"南京江山路6号","2017年10月28日"
" 25500","华侨城翡翠天域",118.9979559714333,32.14946210342667,"南京工农路和疏港大道交汇处华侨城翡翠天域","2018年03月"
0,"东方曼园",118.8922432882902,31.33915369585837,"南京高淳淳溪镇慢城大道68号（高淳新体育中心北侧）","2016年01月23日"
0,"东城金茂悦",118.8718263994334,31.96985873235598,"南京文靖东路88号","2017年07月03日"
0,"爱涛尚书云邸",118.8585057157932,31.96610016334184,"南京文靖路599号","2016年03月09日"
0,"亚泰山语湖",118.7780744080256,32.05723550180587,"南京永固路3号","2017年09月08日"
0,"金轮津桥华府",118.9160844072539,31.90070775306782,"南京江宁区淳化街道修文路3号","2016年07月22日"
" 37000","德基世贸壹号",118.730251217879,31.99841267184827,"南京庐山路208号","2014年10月28日"
0,"朗诗熙华府",118.6989563505564,31.9752553808195,"南京南高庙路朗诗熙华府","2017年11月20日"
0,"保利朗诗蔚蓝",118.8296499002366,32.11827229201747,"南京迈皋桥街道迈化路376号","2017年12月06日"
0,"康利华府",119.0473882603077,31.64677206867821,"南京致远路68号","2018年01月01日"
0,"金地浅山艺境",118.6578035046182,32.09415726915299,"南京七里桥北路金地浅山艺境","2016年08月14日"
" 25500","观山悦",120.4381750599716,31.07803497431056,"南京顶山街道定向河西侧","2017年12月27日"
0,"金盛财智广场",118.7821776502053,32.09653621784545,"南京建宁路31号","2012年09月16日"
0,"中海玄武公馆",118.8280283536893,32.10309198480382,"南京恒嘉路中海玄武公馆","2017年03月30日"
0,"富力城",118.8866909526619,32.01565712729463,"南京东麒路277号","2012年11月29日"
0,"中航樾广场",118.8929305548868,31.93925600303117,"南京淳化街道经贸学院路8号","2015年12月12日"
0,"双富嘉园",119.0000264355618,31.39146623725603,"南京双牌石大街288号","2017年01月07日"
" 29000","银亿东城第九街区",118.9587943427258,32.05897989166949,"南京麒麟街道麒东路777号","2018年02月04日"
0,"碧景山庄",118.7820557878764,32.24351789402061,"南京大厂丁家山路2号","2015年02月11日"
" 11900","翠屏城",118.8651861915839,31.79647196501264,"南京天禄大道1号","2017年11月08日"
0,"万科璞悦山",118.6751452545134,32.11764716703607,"南京江浦街道沿山大道231号","2017年04月25日"
0,"九龙湖别墅",118.8140674437078,31.91976552926573,"南京秣陵街道清水亭西路188号","2016年11月18日"
0,"涟城二期",118.7551542812776,31.99857515940986,"南京建邺区怡康街与西城路交汇处","2015年03月22日"
0,"亚泰梧桐世家",118.7433008220733,32.26940507658006,"南京润富路666号","2017年08月03日"
0,"东骏华府",118.9402609516984,32.33185044952094,"南京横梁街道瑞成路9号","2013年12月29日"
0,"恒建金陵美域",118.9855048282512,31.87300212078389,"南京湖熟街道灵顺北路211号","2015年10月09日"
0,"高淳碧桂园",118.8968292613715,31.34412331169001,"南京淳溪镇石臼湖北路76号","2018年03月26日"
0,"荣鼎幸福城",118.8547213261199,32.36598885823857,"南京方州路68号","2018年01月24日"
0,"垠领城市街区",119.0749433775888,31.2989934392677,"南京振兴路180号、胥溪路9号","2016年06月01日"
" 380","恒大翡翠华庭",118.828241033807,32.10494908615794,"南京华飞路1号","2017年07月05日"
0,"翠屏诚园",118.8346734034253,31.92002953414327,"南京秣陵街道双龙大道3000号","2017年06月19日"
0,"中南锦苑",118.7565149652946,31.98425669945897,"南京软件大道中南锦苑","2017年03月22日"
" 23000","弘阳上院",118.9084030695825,31.93624759256761,"南京江宁区淳化街道月华路8号","2015年02月18日"
" 16000","新城源山",118.7780744080256,32.05723550180587,"南京宝华山国家森林公园","2017年11月11日"
0,"碧桂园S1秦淮世家",118.9151434340288,31.64831174257394,"南京横山西路碧桂园S1秦淮世家","2017年11月30日"
" 11000","润泰市场",118.6379041744866,31.9184610282061,"南京三山矶路9号","2017年10月01日"
" 14000","中骏六号街区",118.7780744080256,32.05723550180587,"南京金德路65号","2018年03月26日"
" 55000","宏图上水云锦一期",118.7472742689881,32.02124798857086,"南京云锦路宏图上水云锦","2017年01月01日"
" 12000","碧桂园世纪城邦",118.8942498342062,31.34694445386893,"南京郭庄镇机场大道南碧桂园世纪城邦","2017年08月12日"
" 20000","绿地国际花都",118.5899800186012,31.8405098656495,"南京江宁街道地秀路522号","2016年09月30日"
0,"绿城桃花源",119.0217629988046,32.04571553461317,"南京汤山街道麒麟门大道6699号","2018年03月"
" 12000","碧桂园凤凰城",119.0996863413862,32.03218860886476,"南京经济开发区S122东北侧碧桂园凤凰城","2018年04月07日"
0,"万宇汽车五金博览中心",118.9415681110799,31.94393485349766,"南京淳化街道龙凤路2号","2016年05月25日"
0,"森湖溪谷",119.011088030192,31.57796543964531,"南京傅家边现代农业园区内","2009年07月17日"
0,"万科星荟",118.8108576885273,31.97475979445248,"南京明城大道万科都荟南苑","2017年10月29日"
" 21000","金轮星立方",118.7817723886575,31.99799477275822,"南京宁南街道金轮星立方","2015年12月04日"
0,"明发阅山悦府",118.6444257242686,32.08114358586541,"南京沿山大道和花卉大道交汇处","2018年02月11日"
0,"中南世纪雅苑",118.916708987397,32.04313070524712,"南京马群街道中南世纪雅苑","2017年05月20日"
" 13000","金宁广场",118.8487697958298,32.34751758616355,"南京六合长江路1号","2010年11月06日"
" 150","中南锦苑",118.7565149652946,31.98425669945897,"南京软件大道中南锦苑","2017年03月22日"
0,"喜之郎丽湖湾",119.037363657698,31.68455722058429,"南京珍珠北路88号","2015年12月25日"
0,"龙湖春江紫宸",118.7406548631936,32.09573375004724,"南京江边路1号","2017年03月30日"
0,"禹洲弘阳滨湖里",118.6007700105355,31.85940119979731,"南京润寿北路599号","2016年12月24日"
0,"南京金奥中心",118.7317686454278,32.00432202883629,"南京江东中路333号","2013年12月17日"
0,"石林中心城",118.8406347070717,32.33244867233251,"南京六合区雄州街道王桥路99号","2017年10月29日"
" 2480","东墅山庄英郡华府",118.9361444675972,32.098719710952,"南京灵山北路9号","2014年05月03日"
0,"金辉金陵铭著",118.8205877286756,31.95061810100132,"南京胜太路金辉金陵铭著","2016年11月17日"
0,"华洲青林湾",119.0089268568526,31.64800437113663,"南京天生桥大道218号","2017年09月01日"
0,"福晟庭院",118.9942492934075,31.61270349778846,"南京金牛北路369号","2015年10月30日"
0,"富力水街坊",118.8946102244954,32.01788978803834,"南京麒麟科技创新园东麒路666号","2017年12月11日"
0,"华新城璟园",118.7306317063953,32.00867549608407,"南京建邺区巴山路38号","2016年05月15日"
" 900","富力十号",118.8866909526619,32.01565712729463,"南京东麒路277号","2015年06月02日"
" 24500","毅达汇创中心",118.7780744080256,32.05723550180587,"南京总部大道毅达汇创中心","2017年06月05日"
0,"海尔双湖壹号公馆",118.9719600879411,31.39315094089743,"南京双湖路1号","2017年06月26日"
" 60000","碧桂园S1秦淮世家",118.9151434340288,31.64831174257394,"南京横山西路碧桂园S1秦淮世家","2018年03月17日"
" 36000","大发融悦",118.8757772890042,32.03761727573808,"南京双拜岗路大发融悦","2016年04月26日"
0,"金轮星光名座",118.8455126810846,31.91463660152268,"南京诚信大道998号","2013年01月22日"
0,"太湖香树湾花园",118.7780744080256,32.05723550180587,"南京太湖湾旅游度假区环太湖路208号（太湖湾旅游度假区永丰湾）","2016年04月05日"
0,"绿城深蓝",118.8600340851959,31.97168171605523,"南京东山街道富塘街8号","2018年02月11日"
" 20600","威尼斯水城第十九街区",118.7504124970823,32.16240412601025,"南京浦洲路66号","2017年11月11日"
0,"清香雅苑",118.841336783057,32.36038713624895,"南京雄州街道园林西路188号","2016年12月29日"
" 31000","金润国际广场",118.7417724091464,31.99620261288371,"南京楠溪江东街与恒山路交汇处","2012年11月09日"
0,"中交锦兰荟",118.7780744080256,32.05723550180587,"南京卓溪路10号","2016年07月07日"
0,"武夷名仕园",118.9415681110799,31.94393485349766,"南京淳化街道平和路8号","2015年10月21日"
0,"隆豪翡翠星城",118.9094219079475,31.33541431732358,"南京淳溪镇宝塔路350号","2017年07月02日"
0,"北辰旭辉铂悦金陵",118.7330601392595,32.0303034041956,"南京乐山路99号","2017年03月29日"
0,"银城蓝溪郡",118.8829081594136,31.8838176413981,"南京秣陵街道创新东路2号","2015年10月01日"
0,"秦淮源筑",119.0333373059784,31.67690408294747,"南京双塘南路68号","2017年11月29日"
0,"东屏湖9号",119.0358871901855,31.72236305581601,"南京南京溧水县东屏镇","2013年01月24日"
" 27300","通宇林景尊园",118.657872540295,32.07513036448952,"南京新浦路通宇林景尊园","2017年12月20日"
0,"中宏万家广场",118.887211520705,31.33227603008732,"南京淳溪路北漪路129号","2015年09月16日"
0,"阳光聚宝山庄臻园",118.8711991513286,32.09998525321101,"南京玄武大道88号","2016年09月13日"
0,"溧都桂苑",119.0096123837308,31.62595751886386,"南京溧水金牛北路666号","2011年11月24日"
0,"亚东同城逸境",119.0509107137579,31.6600217436995,"南京秦淮大道168号","2016年03月05日"
0,"高科荣境",118.9883087451717,32.1266799019819,"南京守敬路313号","2012年10月23日"
" 12800","藏珑谷山庄",119.013639487332,31.74074774208822,"南京乌夏路88号","2016年06月30日"
0,"瑞景叶泊蓝山",118.7785771896195,31.84979622406829,"南京江宁丹阳大道110号","2012年10月02日"
0,"中航金城1号",118.8129083529218,32.04588343479951,"南京中山东路518号","2015年10月30日"
0,"金盛田锦上",118.6273049554862,32.04649210448395,"南京江浦街道锦上路1号","2014年08月14日"
0,"启迪方洲博园",118.9119191637564,32.03160625464619,"南京麒麟街道智通路189号","2016年07月16日"
0,"中航樾公馆",118.8889663093153,31.9539171307712,"南京淳化街道泉东路58号","2017年07月03日"
0,"富力尚悦居一期",118.6680546194539,31.91023898425397,"南京雨花板桥新城新湖大道（近莲花湖公园）","2015年10月24日"
0,"招商依云郡",118.8323622813084,31.7850970443259,"南京禄口街道信诚大道33号","2016年07月29日"
0,"君悦花园",118.7500499485732,32.251425749874,"南京大厂浦六南路8号","2014年08月23日"
0,"弘阳时光里",118.7172462747398,32.18039301137142,"南京蓝海路弘阳时光里","2017年06月24日"
0,"宏图上水云锦一期",118.7472742689881,32.02124798857086,"南京云锦路宏图上水云锦","2016年06月04日"
" 12800","绿城玫瑰园",118.6684766083485,32.1311378986881,"南京位处南京唯一省级旅游度假区——珍珠泉旅游度假区密林深处","2014年09月27日"
0,"正荣润峯",118.8217494398188,32.08739182928039,"南京河西南部学子路","2017年04月21日"
0,"中垠紫金观邸",118.9015461158973,32.05232823923972,"南京马群街道中垠紫金观邸","2017年12月20日"
0,"东方兰园",118.8411746011836,32.1312287642796,"南京栖霞经五路与迈化路交汇处","2016年07月28日"
0,"高科荣境",118.9883087451717,32.1266799019819,"南京守敬路313号","2013年11月01日"
0,"苏宁钟山朝阳府",118.8980239749758,32.0913139891331,"南京玄武大道苏宁钟山朝阳府","2014年03月30日"
0,"新城玖珑湖二期",118.8330420815034,31.91477073900939,"南京秣陵街道长亭街55号","2015年10月"
0,"荣盛首府",118.7424309928479,32.24943802947354,"南京葛塘街道和旭路500号","2017年11月29日"
0,"龙湖新壹城",118.9096472789661,31.91520240361229,"南京龙眠大道660号","2017年10月25日"
" 30000","首创立方",118.7276498032747,31.97184110400703,"南京建邺地铁二号线天迈广场油坊桥站","2017年10月13日"
" 42000","弘阳燕澜七缙",118.74179198502,32.16709029296466,"南京沿江街道高新技术产业开发区","2017年08月17日"
" 20000","东原亲山",118.7780744080256,32.05723550180587,"南京宝华山国家森林公园南门","2017年12月22日"
" 32000","仙林汽配城",118.902114498946,32.12560776782336,"南京王子楼西108号","2017年08月04日"
" 18000","远洋山水",118.7780744080256,32.05723550180587,"南京秣周西路33号","2017年12月05日"
" 35","绿地理想城",118.7780744080256,32.05723550180587,"南京高塘路99号","2018年01月06日"
" 300","湖南路地下商业街",118.7811560342979,32.07499141065085,"南京湖南路地下商业街","2017年06月03日"
" 25000","涵碧楼",118.7560033865948,32.04442588871159,"南京汉中门大街涵碧楼","2015年08月29日"
" 6900","碧桂园晚亭印象",118.8942498342062,31.34694445386893,"南京滁阳路碧桂园晚亭印象","2017年11月19日"
0,"世茂君望墅",118.8725697337739,32.01039784610178,"南京石杨路107号","2015年09月26日"
" 7500","碧桂园十里春风",118.8942498342062,31.34694445386893,"南京红琊山路碧桂园十里春风","2018年03月07日"
" 28000","万科金域国际",118.8670370162397,31.96098400072414,"南京同夏路24号","2018年03月30日"
" 29000","银城KinmaQ+社区",118.9122779050283,32.07294880801665,"南京金马路银城KinmaQ+社区","2017年10月01日"
0,"恒大金碧天下",119.0737540920597,31.70057502793663,"南京永湖路188号","2018年03月29日"
" 26000","九霄梦天地",118.9229219584567,32.099652629076,"南京学衡路1号","2016年02月26日"
0,"蓝光公园1号",118.6732109972846,31.92591631683342,"南京华新路蓝光公园1号","2017年06月17日"
" 14000","中州国际广场",118.7780744080256,32.05723550180587,"南京上海北路699号","2017年05月25日"
0,"力标赞城",118.7780744080256,32.05723550180587,"南京台南路10号","预计2018年01月"
0,"钟山颐府",118.8132103416749,32.04676420264064,"南京中山东路301号","2016年06月01日"
" 158","绿地缤纷广场",118.7859687464914,32.1181890588941,"南京幕府东路绿地缤纷广场","2017年09月16日"
" 43000","百家湖别墅花园",118.8201588533709,31.9483738255737,"南京湖滨路58号","2017年04月12日"
0,"华辉秦淮湾",118.8808732566877,31.32863816252344,"南京宝塔路98号","2017年06月05日"
0,"万景佳苑",119.0396954207556,31.68829544993976,"南京红光路19号","2016年10月10日"
" 34000","龙江里",118.7459875038366,32.05770706730537,"南京江东北路龙江里","2016年12月30日"
" 20000","苏宁紫金嘉悦",118.8922352493542,32.0971265046681,"南京徐庄软件园","2016年09月24日"
" 18500","郦湖美墅",118.8189743899458,32.5387256198191,"南京马鞍街道弘湖路1号","2017年07月09日"
" 15000","弘阳时代中心二期",118.7272778320308,32.14511467919412,"南京大桥北路弘阳时代中心","2017年10月29日"
0,"金牛湖度假中心",118.9754313200928,32.47562584733648,"南京金牛湖街道金牛湖社区88号","2013年12月17日"
" 11000","东骏悦府",118.818904818879,32.33177772895079,"南京龙池街道莉湖西路31号","2016年11月03日"
" 38000","通宇林景象山墅院",118.6349031280151,32.08732150414787,"南京江浦街道白马路89号","2016年03月26日"
0,"绿地华侨城海珀滨江",118.6956499799235,31.98139662120764,"南京龙王大街绿地华侨城海珀滨江","2017年11月20日"
0,"中海桃源里",118.7477835049071,32.0838591117657,"南京热河南路果品市场地块中海桃园里","2018年03月"
" 20000","龙湖紫都城",118.7778016186931,32.08605878044825,"南京中央门街道龙湖紫都城","2018年03月21日"
" 18500","明发新城中心",118.6560511800599,32.07166634921652,"南京江浦街道浦口大道37号","2015年08月12日"
" 17000","蓝天星港花园",118.8615802594193,31.78563307820375,"南京来凤路5号","2017年12月23日"
" 33500","江山汇悦山府",118.7575440056969,32.11252831954423,"南京宝塔桥江山汇悦山府","2017年12月24日"
" 45000","大华锦绣华城商业",118.7294785053607,32.1235233911917,"南京浦口区浦珠北路59号","2017年07月18日"
0,"钟鼎名悦广场",118.8684804848855,32.0436483208337,"南京中山门大街297号","2017年09月16日"
" 50000","钟鼎名悦广场",118.8684804848855,32.0436483208337,"南京中山门大街297号","2018年03月19日"
0,"融创臻园",118.6190333484689,32.0621065277938,"南京雨山西路和广电南路交汇处","2017年12月07日"
0,"融创玉兰公馆",118.8495515228439,32.15160833098263,"南京燕子矶街道融创玉兰公馆","2018年02月25日"
0,"新城璞樾钟山",118.9177116598378,32.08330568277308,"南京奔马路新城璞樾钟山","2017年12月02日"
" 29000","嘉誉山",118.8445733316993,32.11082742604975,"南京兴贤路19号","2017年07月09日"
" 28600","金浦紫御东方",118.8411746011836,32.1312287642796,"南京经五路金浦紫御东方","2017年11月06日"
" 2200","九间堂",118.7884886883792,31.92303000915643,"南京康厚街10号","2018年04月08日"
0,"葛洲坝招商紫郡兰园",118.8395779098515,32.1265750663835,"南京和燕路葛洲坝招商紫郡蘭园","2017年10月"
" 23000","花样年喜年中心",118.7883423094963,32.1027477897518,"南京鼓楼区中央北路河路道1号","2016年09月21日"
" 23600","弘阳禹洲时光春晓",118.9482089800879,31.93407601061809,"南京梨树园路10号","2018年01月10日"
0,"云栖山庄",118.9641841757857,32.05943738584202,"南京汤山街道阳明路99号","2016年09月11日"
0,"世茂城品",118.7667116904265,31.97666251592093,"南京宁双路世茂城品","2017年06月23日"
0,"新城香悦澜山",118.9822212970358,32.131600315832,"南京纬地路新城香悦澜山","2017年04月10日"
0,"雍福龙庭",118.7979409742604,31.91281860314555,"南京将军大道129号","2017年01月25日"
" 23800","万科金域东方",118.9482089800879,31.93407601061809,"南京淳化街道梨树园路9号","2018年03月24日"
" 32000","恒大翡翠华庭",118.828241033807,32.10494908615794,"南京华飞路1号","2017年07月05日"
0,"苏宁钟山朝阳府",118.8980239749758,32.0913139891331,"南京玄武大道苏宁钟山朝阳府","2016年05月08日"
0,"中建国熙台",118.6536929089097,32.06590199137902,"南京新浦路中建国熙台","2017年12月02日"
0,"金陵雅颂居",118.8140877346326,32.0310141948896,"南京大光路67号","2016年08月14日"
0,"罗托鲁拉小镇",118.8647752581351,31.91520232380234,"南京秣陵街道竹山南路688号","2017年11月18日"
0,"明发云庭",118.6273049554862,32.04649210448395,"南京江浦街道胡桥路9号","2018年02月09日"
0,"骋望云邸",118.9026815093839,32.10341702868925,"南京鹤鸣路68号","2015年12月19日"
" 25500","融侨观邸",118.6341269686986,32.08509008337853,"南京海院路88号","2017年07月02日"
" 32000","高科荣境桂山堂",118.9883087451717,32.1266799019819,"南京守敬路313号","2017年07月16日"
" 27800","明发珠江国际",118.7780744080256,32.05723550180587,"南京张敦路59号","2016年04月15日"
0,"恒大华府",118.7641008876313,31.99525360625542,"南京雨花台区赛虹桥街道","2017年02月13日"
" 500","尚峰尚水",118.5145126700257,32.09785265155924,"南京汤泉街道尚峰尚水","2017年04月22日"
0,"华润新悦天地",118.765894137192,32.02198720429714,"南京所街7号","2016年08月08日"
" 643","金隅紫京府",118.7421926822775,31.99647068073844,"南京泰山路金隅紫金府","2017年12月30日"
0,"新城璞樾钟山",118.9177116598378,32.08330568277308,"南京奔马路新城璞樾钟山","2017年12月02日"
" 29000","嘉誉山",118.8445733316993,32.11082742604975,"南京兴贤路19号","2017年07月09日"
" 28600","金浦紫御东方",118.8411746011836,32.1312287642796,"南京经五路金浦紫御东方","2017年11月06日"
" 23600","弘阳禹洲时光春晓",118.9482089800879,31.93407601061809,"南京梨树园路10号","2018年01月10日"
" 23000","花样年喜年中心",118.7883423094963,32.1027477897518,"南京鼓楼区中央北路河路道1号","2016年09月21日"
0,"葛洲坝招商紫郡兰园",118.8395779098515,32.1265750663835,"南京和燕路葛洲坝招商紫郡蘭园","2017年10月"
" 23800","万科金域东方",118.9482089800879,31.93407601061809,"南京淳化街道梨树园路9号","2018年03月24日"
" 2200","九间堂",118.7884886883792,31.92303000915643,"南京康厚街10号","2018年04月08日"
0,"融创臻园",118.6190333484689,32.0621065277938,"南京雨山西路和广电南路交汇处","2017年12月07日"
0,"融创玉兰公馆",118.8495515228439,32.15160833098263,"南京燕子矶街道融创玉兰公馆","2018年02月25日"
0,"金陵雅颂居",118.8140877346326,32.0310141948896,"南京大光路67号","2016年08月14日"
0,"世茂城品",118.7667116904265,31.97666251592093,"南京宁双路世茂城品","2017年06月23日"
0,"新城香悦澜山",118.9822212970358,32.131600315832,"南京纬地路新城香悦澜山","2017年04月10日"
0,"云栖山庄",118.9641841757857,32.05943738584202,"南京汤山街道阳明路99号","2016年09月11日"
0,"雍福龙庭",118.7979409742604,31.91281860314555,"南京将军大道129号","2017年01月25日"
" 32000","恒大翡翠华庭",118.828241033807,32.10494908615794,"南京华飞路1号","2017年07月05日"
0,"中建国熙台",118.6536929089097,32.06590199137902,"南京新浦路中建国熙台","2017年12月02日"
0,"苏宁钟山朝阳府",118.8980239749758,32.0913139891331,"南京玄武大道苏宁钟山朝阳府","2016年05月08日"
0,"罗托鲁拉小镇",118.8647752581351,31.91520232380234,"南京秣陵街道竹山南路688号","2017年11月18日"
" 25500","融侨观邸",118.6341269686986,32.08509008337853,"南京海院路88号","2017年07月02日"
0,"明发云庭",118.6273049554862,32.04649210448395,"南京江浦街道胡桥路9号","2018年02月09日"
" 28000","雅居乐滨江国际",118.6781901879467,32.06813815781693,"南京天浦路96号","2017年11月06日"
" 32000","高科荣境桂山堂",118.9883087451717,32.1266799019819,"南京守敬路313号","2017年07月16日"
0,"骋望云邸",118.9026815093839,32.10341702868925,"南京鹤鸣路68号","2015年12月19日"
0,"华润新悦天地",118.765894137192,32.02198720429714,"南京所街7号","2016年08月08日"
" 27800","明发珠江国际",118.7780744080256,32.05723550180587,"南京张敦路59号","2016年04月15日"
0,"骋望七里楠花园",118.8184407542525,32.31827364260565,"南京龙池街道龙华路66号","2016年08月19日"
0,"恒大华府",118.7641008876313,31.99525360625542,"南京雨花台区赛虹桥街道","2017年02月13日"
" 643","金隅紫京府",118.7421926822775,31.99647068073844,"南京泰山路金隅紫金府","2017年12月30日"
" 500","尚峰尚水",118.5145126700257,32.09785265155924,"南京汤泉街道尚峰尚水","2017年04月22日"
0,"都市丽景",118.8609103364073,31.95098423673667,"南京莱茵达路12号","2017年01月22日"
0,"中锐星湖名邸",118.8007147162005,32.04694030889066,"南京天元路中路128号","2017年04月23日"
0,"中浩山屿湖",118.7292404544005,31.7599655424243,"南京横溪街道甘泉湖路1号","2017年06月12日"
" 23000","牧龙原墅",118.7780744080256,32.05723550180587,"南京滨溪大道1000号","2015年04月24日"
" 24300","北江锦城",118.6206637747662,32.05876455593678,"南京雨山西路89号","2017年11月01日"
0,"保利西江月",118.6645215740018,32.04810818480485,"南京城南河路保利西江月","2017年05月27日"
0,"融侨悦城",118.8869047026614,31.96219111571692,"南京东山街道万安南路9号","2018年03月30日"
0,"紫金华府",118.8854034320355,32.04480227079186,"南京顾家营路紫金华府","2017年12月25日"
0,"南京碧桂园",118.7125232403854,31.88697832396671,"南京牛首大道庆兴路8号","2017年09月05日"
0,"滟紫台",118.7882627196281,31.94294979560223,"南京将军大道韩府路18号","2014年10月30日"
0,"世茂招商语山",118.9136695608227,32.07140443035624,"南京金马路世茂招商语山","2016年10月29日"
0,"九龙湖别墅",118.8140674437078,31.91976552926573,"南京秣陵街道清水亭西路188号","2016年11月18日"
0,"保利中央公园东苑",118.8330420815034,31.91477073900939,"南京秣陵街道长亭街59号","2017年06月15日"
0,"中粮祥云",118.9062613466718,31.92465484995038,"南京淳化街道鹏山路28号","2016年11月05日"
0,"荣盛华府",118.8481243435581,32.33635869765098,"南京雄州街道桥西路162号","2017年07月15日"
0,"荣盛花语城",118.8513362232311,32.32446249240832,"南京龙池街道林场路1号","2017年08月05日"
" 25000","路易庄园",118.6206637747662,32.05876455593678,"南京雨山西路89号","2018年01月19日"
0,"禹洲映月溪山",118.7366966443538,31.95870496486962,"南京善水湾西侧禹洲映月溪山","2017年04月28日"
0,"武夷绿洲沁荷苑",118.846294764726,31.93623568074372,"南京天元中路99号","2017年07月03日"
0,"恒大龙珺",118.9296173797617,32.02524213109228,"南京麒麟街道袁家边路9号","2017年07月08日"
0,"中航国际社区",118.8495515228439,32.15160833098263,"南京燕子矶街道中航国际社区","2017年10月30日"
0,"大吉公元",118.5248328322161,32.09369697857316,"南京汤泉镇江星桥线","2016年09月14日"
0,"鲁能泰山7号院",118.7780744080256,32.05723550180587,"南京格致西路1号","2017年07月19日"
" 13500","卧龙湖小镇",119.0553388291052,31.73120374609378,"南京卧龙湖大道1号","2018年02月03日"
" 11500","荣盛鹭岛荣府",118.8189743899458,32.5387256198191,"南京马鞍街道鹭岛南路3号","2018年03月24日"
" 1762","鸿信云深处",118.9559512057867,32.00015966099539,"南京东山街道神凤路1169号","2013年07月14日"
0,"金盛田阳光青城",118.8147607037986,32.32157817364182,"南京龙华路8号","2016年06月12日"
" 18500","华润幸福里",118.8973247339668,32.13880981806992,"南京尧化街道前塘路9号","2017年09月30日"
" 25800","弘阳燕江府",118.8340742084835,32.14416255725624,"南京太新路弘阳燕江府","2016年12月29日"
0,"东方熙龙山院",118.6349031280151,32.08732150414787,"南京白马路90号","2012年12月20日"
" 8500","花样年花样城",118.9272283247083,31.3449842161952,"南京双高路50号","2017年12月06日"
" 900","碧桂园湖光山色",118.7319854379881,31.86572391505143,"南京谷里街道悦湖路16号","2017年12月23日"
" 864","长发都市诸公",118.7849717773923,31.99997241005109,"南京雨花南路5号","2015年10月24日"
0,"大发融悦",118.8757772890042,32.03761727573808,"南京双拜岗路大发融悦","2016年04月26日"
" 20000","瑞安翠湖山",118.7516557478249,31.91895445421006,"南京牛首山大道121号","2018年04月03日"
0,"景枫你山",118.9036931810493,31.90215849113093,"南京弘景大道3888号","2016年08月26日"
" 38700","深业滨江半岛",118.7461778251301,32.10314358339629,"南京龙江路30号","2017年12月25日"
0,"景湖名都",118.9751052783113,31.31262210058944,"南京高淳固城镇育才西路91号（宁宣公路东侧）","2014年11月12日"
" 43000","银城君颐东方",118.8968338818701,32.05156767640222,"南京马群街169号","2017年12月02日"
" 25800","电建海赋尚城",118.8429568887222,32.137634319277,"南京经五路电建海赋尚城","2018年01月"
0,"海玥名都",118.7421060189721,32.02460861962323,"南京月安街11号","2017年04月21日"
" 19000","景瑞春风十里",118.7728226445226,31.86138035874453,"南京吉山大道9号","2017年06月06日"
0,"紫金铭苑",118.8132958055628,32.12191964138096,"南京幕府东路228号","2017年07月24日"
" 24600","大华锦绣华城香鸢美颂",118.7294785053607,32.1235233911917,"南京浦珠北路59号","2017年11月25日"
0,"紫艺华府",118.7780744080256,32.05723550180587,"南京松杨路紫艺华府","2018年01月19日"
" 15000","江岸景城",118.4751745036245,31.86526441060137,"南京乌江故居路8号","2015年02月08日"
0,"招商1872公园里",118.8395779098515,32.1265750663835,"南京钟燕东路招商1872公园里","2017年03月08日"
0,"梁台煦府",118.9767422251149,31.87359481459602,"南京湖熟街道润湖大道398号","2016年12月10日"
" 25000","山河水花园",118.5246071329567,32.09294316228797,"南京汤泉镇假日路8号","2014年04月30日"
0,"九月森林",118.6223212670084,32.08342667185487,"南京黄山岭路九月森林","2018年03月24日"
0,"万科安品园舍",118.7659327984646,31.9649933148731,"南京仓家巷万科安品园舍","2016年06月20日"
0,"中交锦致",118.8108576885273,31.97475979445248,"南京明城大道以西中交锦致","2017年07月15日"
0,"明发浦泰梦幻家",118.6477834195869,31.92740779796182,"南京凤汇大道明发浦泰梦幻家","2017年09月05日"
" 8300","海尔双湖壹号公馆",118.9719600879411,31.39315094089743,"南京双湖路1号","2017年09月27日"
0,"红太阳国际财智广场",118.9089895903361,31.33618242769404,"南京高淳淳溪镇宝塔路269号","2016年04月10日"
" 22000","凤凰和睿大厦",118.7973636485803,32.03553521855789,"南京太平南路与白下路交界处","时间待定"
0,"万悦城",118.9519791045336,31.36982009066363,"南京九龙山路万悦城","2017年05月03日"
0,"弘阳爱上城",118.7780744080256,32.05723550180587,"南京秦山街道123地块","2015年11月20日"
0,"恒基富荟山",118.9121476516276,32.11865857092845,"南京栖霞文鼎路1号（玄武大道与学林路交汇处）","2014年10月30日"
0,"金浦御龙湾",118.8224231671546,32.11951519928469,"南京和燕路390号","2017年07月21日"
0,"泰禾南京院子",118.7876904990183,32.02678884399369,"南京中山南路501号","2017年06月06日"
0,"弘阳印象华庭",118.7471568514749,32.01816879567414,"南京大桥北路9号","2017年03月01日"
0,"五矿晏山居",118.875564098649,32.04411168263164,"南京钟灵街50号","2017年07月14日"
0,"仁恒绿洲新岛",118.7084502261862,32.03377176667957,"南京葡园路仁恒绿洲新岛","2017年11月19日"
0,"金地中心风华",118.7023798602279,31.98198025715574,"南京江东南路金地中心风华","2017年11月19日"
" 26500","恒大悦澜湾",118.7780744080256,32.05723550180587,"南京嘉业路8号","2017年11月30日"
0,"复地御钟山二期",118.899664280837,32.05578425340213,"南京马群街道马群街2号","2014年07月19日"
0,"旭辉铂悦秦淮",118.7953806229975,31.97484130113306,"南京东山街道农花路102号","2017年07月"
0,"中国铁建原香颂",118.6161343435623,31.86547801206223,"南京宁桥南路108号","2017年09月30日"
0,"星叶枫情水岸",118.8818924272452,31.94772274332298,"南京衫湖东路18号","2015年03月06日"
0,"罗托鲁拉小镇",118.8647752581351,31.91520232380234,"南京秣陵街道竹山南路688号","2016年04月30日"
0,"朗诗青春街区",118.860522997851,31.78379644297444,"南京来凤路18号","2017年11月30日"
0,"银城一方山",118.7826673542676,31.87887139529194,"南京江宁区淳化街道吉印大道4199号","2016年01月01日"
0,"银城一方山",118.7826673542676,31.87887139529194,"南京江宁区淳化街道吉印大道4199号","2015年11月13日"
" 23000","山水云房花园",118.7078212578206,32.11862130443328,"南京浦珠北路126号","2017年05月22日"
0,"福基九龙新城",118.7450738842785,32.20769579970177,"南京大厂凤滨路18号","2011年05月06日"
" 28000","天泽苑",118.8574259557579,31.92671560623449,"南京江宁区秣陵街道竹山路588号","2018年02月03日"
0,"海峡城",118.6930115416576,31.98708282970404,"南京扬子江大道399号","时间待定"
0,"石林大公园",118.6658627944333,31.93439038369555,"南京凤集大道6号","2012年08月08日"
0,"国信自然天城",118.6396559043666,32.09729036743584,"南京浦口区江浦街道沿山东路188号","2008年10月28日"
" 26000","明发香山郡",118.6273049554862,32.04649210448395,"南京浦口江浦街道沿山大道与财八路交叉口（大马山路6号）","2017年07月22日"
" 6800","创维乐活城",119.0207176406826,31.69267717506764,"南京团山西路26号","2017年09月29日"
0,"中山首府",119.0438166011933,31.63602130552195,"南京崇文路68号(体育公园南300米)","2017年07月28日"
0,"升龙天汇",118.7051317904119,31.97081643936793,"南京新河路升龙天汇","2017年11月19日"
0,"五矿崇文金城",118.7028254601846,31.97343857482574,"南京吴侯街158号","2017年11月20日"
0,"玄武湖金茂广场御景华府",118.7898749085269,32.07904243541421,"南京中央路201号","2009年11月01日"
0,"正荣润江城",103.9041805595216,36.05269695095417,"南京镇南河路99号","2017年07月05日"
0,"中国铁建青秀城",118.8406364398973,32.12259447503586,"南京迈尧路327号","2016年06月04日"
0,"保利堂悦",118.8131260213299,31.98708676552194,"南京汇景北路保利堂悦","2017年01月18日"
0,"银城蓝溪郡",118.8829081594136,31.8838176413981,"南京秣陵街道创新东路2号","2016年04月16日"
" 29500","星叶瑜憬湾",118.8313789586822,32.10966291802278,"南京迈皋桥街道网板路8号","2018年03月27日"
0,"万达茂",118.9886366904625,32.13304989681055,"南京守敬路万达茂","2015年10月"
0,"万科九都荟",118.8123184428798,31.97657188420265,"南京民和路1号","2015年11月17日"
0,"创源无想墅",118.707219725188,32.10124607362065,"南京珍珠南路199号","2016年01月12日"
" 300","佳兆业城市广场",118.7111427514268,31.97549666288131,"南京太清路佳兆业城市广场","2017年11月19日"
0,"长江峰景",118.7403954774776,32.09263358876117,"南京中山北路645号","2010年12月30日"
0,"万科星荟",118.8108576885273,31.97475979445248,"南京明城大道万科都荟南苑","2017年07月12日"
0,"盘金华府",118.7399702187509,32.20805330579511,"南京大厂新华西路458号","2014年06月21日"
" 9550","嘉恒有山",118.9478479609848,32.45045312201094,"南京金牛湖街道通河路9号","2017年12月16日"
0,"龙海骏景",118.867418077437,32.34747334123522,"南京冶浦路99号","2017年08月03日"
0,"城开新都雅苑",118.84800376223,32.33955818255956,"南京雄州街道王桥路28号","预计2017年11月"
0,"万科城",119.0318104111878,31.64794059536451,"南京秀园路6号","2018年03月25日"
0,"艾菲国际",118.7087704083208,32.16648888960027,"南京丽景路艾菲国际","2015年04月25日"
0,"星叶羊山湖花园",118.9464675340093,32.12228406250346,"南京羊山北路星叶羊山湖花园","2014年10月25日"
0,"保利礼墅",118.9295337061967,32.11097695649148,"南京仙林街道保利礼墅","2015年06月20日"
0,"天生御景",119.0044347558952,31.63476853301292,"南京洪蓝镇凤凰井路26号","2014年10月17日"
0,"保利天悦",118.7325477448983,32.03108091466837,"南京应天大街保利天悦","2017年11月18日"
0,"通宇林景熙园",118.6501450746539,32.0913457771416,"南京江浦街道七里路与沿山大道交汇处","2017年08月02日"
" 25000","南京常发广场",118.8180336457886,32.09260114030094,"南京红山路88号","2015年08月05日"
" 17100","江山汇金",118.7650569131626,32.06860445880062,"南京鼓楼区燕江路201号","2014年05月07日"
0,"骋望七里楠花园",118.8184407542525,32.31827364260565,"南京龙池街道龙华路66号","2015年02月14日"
0,"梅龙湖无界",118.931336495762,31.95417020582323,"南京淳化镇西山头","2015年10月15日"
0,"招商兰溪谷",119.0485989012537,31.65760622534108,"南京永新路招商兰溪谷","2017年11月02日"
0,"碧桂园北岸世家",118.7780744080256,32.05723550180587,"南京滁阳东路901号","2017年07月26日"
" 20000","证大喜玛拉雅中心",118.8108921124928,31.97029556775504,"南京民智路9号、10号、11号、12号、13号","2018年01月06日"
" 30000","海峡城",118.6930115416576,31.98708282970404,"南京扬子江大道399号","2016年12月20日"
0,"中海玄武公馆",118.8280283536893,32.10309198480382,"南京恒嘉路中海玄武公馆","2017年03月30日"
" 420","锦绣华府",118.748732942865,32.10087185564733,"南京龙江路（南京西站西侧）","2016年09月02日"
" 60000","绿地之窗",118.7965695114756,31.97380763395347,"南京南京南站北广场绿地之窗","2017年01月01日"
" 60000","金轮星立方",118.7817723886575,31.99799477275822,"南京宁南街道金轮星立方","2015年12月04日"
0,"乐基广场",118.7509886733396,32.04035147114477,"南京云锦路所街","2014年11月26日"
" 50000","绿国万象都荟",118.8020402854551,32.0053428312632,"南京永乐路洪家园1号","2015年11月17日"
0,"中国铁建青秀城",118.8406364398973,32.12259447503586,"南京迈尧路327号","2014年12月20日"
0,"善水湾花园",118.7366966443538,31.95870496486962,"南京梅兴路善水湾花园","2013年03月30日"
0,"弘阳春上西江",118.6741629603793,31.94682158034673,"南京龙藏大道12号弘阳","2016年11月27日"
0,"紫晶未来城",118.8441701230762,32.34349204726423,"南京雄州街道双客路97号","2016年09月07日"
" 35000","明发云庭",118.6273049554862,32.04649210448395,"南京江浦街道胡桥路9号","2017年03月18日"
0,"香缇郡",118.8191838325704,32.32337693059853,"南京龙池街道龙口路9号","2016年10月20日"
" 16500","宝隆时代广场",118.6557294972236,32.07216834555913,"南京江浦街道新浦路128号","2017年11月04日"
" 900","新城璞樾钟山",118.9177116598378,32.08330568277308,"南京奔马路新城璞樾钟山","2017年12月02日"
" 25800","御澜府",118.7187279021191,32.15139493848411,"南京泰山西路御澜府","2017年11月08日"
" 16000","碧桂园大学印象",118.7780744080256,32.05723550180587,"南京宝华大道8号","2017年11月11日"
0,"万科大都会",118.7780744080256,32.05723550180587,"南京站东二路万科大都会","2018年03月30日"
0,"弘阳禹洲时光印象",119.0233543470155,31.65275120087459,"南京栖凤路68号","2017年12月27日"
" 35900","电建中储泛悦城市广场",118.796087672078,32.10631834473104,"南京小市街道电建中储泛悦城市广场","2017年12月28日"
" 30000","新城璞樾和山",118.8522555850222,32.04095857741548,"南京钟山路新城璞樾和山","2018年02月14日"
" 17000","万达茂",118.9886366904625,32.13304989681055,"南京守敬路万达茂","2018年03月24日"
0,"世茂荣里",118.735183897875,32.13159618531885,"南京浦珠路荣里","2018年03月28日"
" 37000","世茂城品",118.7667116904265,31.97666251592093,"南京宁双路世茂城品","2018年02月01日"
" 22000","电建洺悦府",118.7780744080256,32.05723550180587,"南京麦化路611号","2017年12月22日"
0,"禹洲吉庆里",118.7665036060398,32.01411065563163,"南京赛虹桥街道禹洲吉庆里","2016年05月26日"
" 37500","恒盛金陵湾",118.7469028663716,32.08119544876564,"南京鼓楼区热河南路街道","2017年12月29日"
" 13500","嘉恒有山",118.9478479609848,32.45045312201094,"南京金牛湖街道通河路9号","2017年12月16日"
" 11000","融创中南御园",118.9151160339141,31.34118971800025,"南京水阳江路99号","2018年01月02日"
" 350","保利堂悦",118.8131260213299,31.98708676552194,"南京汇景北路保利堂悦","2016年04月23日"
0,"亚泰山语湖",118.7780744080256,32.05723550180587,"南京永固路3号","2017年09月08日"
" 37000","德基世贸壹号",118.730251217879,31.99841267184827,"南京庐山路208号","2014年10月28日"
" 25500","华侨城翡翠天域",118.9979559714333,32.14946210342667,"南京工农路和疏港大道交汇处华侨城翡翠天域","2018年03月"
0,"金盛财智广场",118.7821776502053,32.09653621784545,"南京建宁路31号","2012年09月16日"
0,"雅居乐林语城",118.7780744080256,32.05723550180587,"南京汊河新城雅居乐林语城","2017年12月16日"
0,"湖滨一品苑",118.9016733473982,31.32472543477154,"南京淳南路117号","2011年04月20日"
" 395","融创玖溪桃花源",118.7780744080256,32.05723550180587,"南京桃溪路1号","2018年03月25日"
0,"朗诗熙华府",118.6989563505564,31.9752553808195,"南京南高庙路朗诗熙华府","2017年11月20日"
0,"东城金茂悦",118.8718263994334,31.96985873235598,"南京文靖东路88号","2017年07月03日"
0,"金轮津桥华府",118.9160844072539,31.90070775306782,"南京江宁区淳化街道修文路3号","2016年07月22日"
0,"爱涛尚书云邸",118.8585057157932,31.96610016334184,"南京文靖路599号","2016年03月09日"
0,"金象朗诗红树林",118.739274526947,32.13233761001818,"南京江山路6号","2017年10月28日"
0,"东方曼园",118.8922432882902,31.33915369585837,"南京高淳淳溪镇慢城大道68号（高淳新体育中心北侧）","2016年01月23日"
0,"保利朗诗蔚蓝",118.8296499002366,32.11827229201747,"南京迈皋桥街道迈化路376号","2017年12月06日"
0,"中航樾广场",118.8929305548868,31.93925600303117,"南京淳化街道经贸学院路8号","2015年12月12日"
0,"锦绣华府",118.748732942865,32.10087185564733,"南京龙江路（南京西站西侧）","2016年05月21日"
0,"奥克斯钟山府",118.9139651033354,32.09514392116203,"南京文枢西路奥克斯钟山府","2018年01月29日"
0,"康利华府",119.0473882603077,31.64677206867821,"南京致远路68号","2018年01月01日"
" 11900","翠屏城",118.8651861915839,31.79647196501264,"南京天禄大道1号","2017年11月08日"
0,"世纪天城",119.0262094763331,31.69864565647768,"南京团山路1号","2016年07月19日"
" 35900","世茂外滩新城",118.7407690387222,32.08452501199852,"南京南通路89号","时间待定"
0,"麒麟山庄公园境",118.9450443396068,32.05831085966082,"南京东麒东路588号","时间待定"
0,"东骏华府",118.9402609516984,32.33185044952094,"南京横梁街道瑞成路9号","2013年12月29日"
0,"华润国际社区",118.6751841037779,32.09061065715351,"南京广西埂大街100号","2017年12月28日"
0,"双富嘉园",119.0000264355618,31.39146623725603,"南京双牌石大街288号","2017年01月07日"
0,"碧景山庄",118.7820557878764,32.24351789402061,"南京大厂丁家山路2号","2015年02月11日"
0,"御珑湾",118.8772581779764,32.31046576638648,"南京雄州街道龙棠路233号","2014年06月08日"
0,"中粮鸿云",118.8895746031795,31.99812698004979,"南京丰泽路118号","2017年09月08日"
" 380","恒大翡翠华庭",118.828241033807,32.10494908615794,"南京华飞路1号","2017年07月05日"
0,"九龙湖别墅",118.8140674437078,31.91976552926573,"南京秣陵街道清水亭西路188号","2016年11月18日"
0,"亚泰梧桐世家",118.7433008220733,32.26940507658006,"南京润富路666号","2017年08月03日"
0,"荣鼎幸福城",118.8547213261199,32.36598885823857,"南京方州路68号","2018年01月24日"
0,"垠领城市街区",119.0749433775888,31.2989934392677,"南京振兴路180号、胥溪路9号","2016年06月01日"
0,"恒建金陵美域",118.9855048282512,31.87300212078389,"南京湖熟街道灵顺北路211号","2015年10月09日"
0,"高淳碧桂园",118.8968292613715,31.34412331169001,"南京淳溪镇石臼湖北路76号","2018年03月26日"
0,"翠屏诚园",118.8346734034253,31.92002953414327,"南京秣陵街道双龙大道3000号","2017年06月19日"
0,"涟城二期",118.7551542812776,31.99857515940986,"南京建邺区怡康街与西城路交汇处","2015年03月22日"
0,"石林中心城",118.8406347070717,32.33244867233251,"南京六合区雄州街道王桥路99号","2017年10月29日"
0,"和昌湾景",118.6755581258533,31.9254387597965,"南京新湖大道和昌湾景","2017年07月03日"
" 12730","海伦国际",118.7897120457379,32.0574390450143,"南京中大街81号","2017年10月"
" 55000","宏图上水云锦一期",118.7472742689881,32.02124798857086,"南京云锦路宏图上水云锦","2017年01月01日"
" 20000","绿地国际花都",118.5899800186012,31.8405098656495,"南京江宁街道地秀路522号","2016年09月30日"
" 12000","碧桂园世纪城邦",118.8942498342062,31.34694445386893,"南京郭庄镇机场大道南碧桂园世纪城邦","2017年08月12日"
" 21000","金轮星立方",118.7817723886575,31.99799477275822,"南京宁南街道金轮星立方","2015年12月04日"
" 20600","威尼斯水城第十九街区",118.7504124970823,32.16240412601025,"南京浦洲路66号","2017年11月11日"
0,"万科星荟",118.8108576885273,31.97475979445248,"南京明城大道万科都荟南苑","2017年10月29日"
0,"万宇汽车五金博览中心",118.9415681110799,31.94393485349766,"南京淳化街道龙凤路2号","2016年05月25日"
0,"银城东岳府",118.8483975254502,32.02535577253019,"南京海福巷71号","2017年03月30日"
0,"仙林汽配城",118.902114498946,32.12560776782336,"南京王子楼西108号","2017年08月04日"
0,"中南世纪雅苑",118.916708987397,32.04313070524712,"南京马群街道中南世纪雅苑","2017年05月20日"
0,"明发阅山悦府",118.6444257242686,32.08114358586541,"南京沿山大道和花卉大道交汇处","2018年02月11日"
0,"森湖溪谷",119.011088030192,31.57796543964531,"南京傅家边现代农业园区内","2009年07月17日"
" 13000","金宁广场",118.8487697958298,32.34751758616355,"南京六合长江路1号","2010年11月06日"
0,"龙湖春江紫宸",118.7406548631936,32.09573375004724,"南京江边路1号","2017年03月30日"
" 150","中南锦苑",118.7565149652946,31.98425669945897,"南京软件大道中南锦苑","2017年03月22日"
0,"绿城桃花源",119.0217629988046,32.04571553461317,"南京汤山街道麒麟门大道6699号","2018年03月"
" 23000","弘阳上院",118.9084030695825,31.93624759256761,"南京江宁区淳化街道月华路8号","2015年02月18日"
" 24500","毅达汇创中心",118.7780744080256,32.05723550180587,"南京总部大道毅达汇创中心","2017年06月05日"
" 900","富力十号",118.8866909526619,32.01565712729463,"南京东麒路277号","2015年06月02日"
0,"海尔双湖壹号公馆",118.9719600879411,31.39315094089743,"南京双湖路1号","2017年06月26日"
0,"碧桂园S1秦淮世家",118.9151434340288,31.64831174257394,"南京横山西路碧桂园S1秦淮世家","2017年11月30日"
0,"中南锦苑",118.7565149652946,31.98425669945897,"南京软件大道中南锦苑","2017年03月22日"
" 36000","大发融悦",118.8757772890042,32.03761727573808,"南京双拜岗路大发融悦","2016年04月26日"
" 16000","新城源山",118.7780744080256,32.05723550180587,"南京宝华山国家森林公园","2017年11月11日"
" 60000","碧桂园S1秦淮世家",118.9151434340288,31.64831174257394,"南京横山西路碧桂园S1秦淮世家","2018年03月17日"
0,"金轮星光名座",118.8455126810846,31.91463660152268,"南京诚信大道998号","2013年01月22日"
0,"太湖香树湾花园",118.7780744080256,32.05723550180587,"南京太湖湾旅游度假区环太湖路208号（太湖湾旅游度假区永丰湾）","2016年04月05日"
" 11000","润泰市场",118.6379041744866,31.9184610282061,"南京三山矶路9号","2017年10月01日"
0,"绿城深蓝",118.8600340851959,31.97168171605523,"南京东山街道富塘街8号","2018年02月11日"
" 31000","金润国际广场",118.7417724091464,31.99620261288371,"南京楠溪江东街与恒山路交汇处","2012年11月09日"
0,"秦淮源筑",119.0333373059784,31.67690408294747,"南京双塘南路68号","2017年11月29日"
0,"力标赞城",118.7780744080256,32.05723550180587,"南京台南路10号","预计2018年01月"
0,"中交锦兰荟",118.7780744080256,32.05723550180587,"南京卓溪路10号","2016年07月07日"
0,"东屏湖9号",119.0358871901855,31.72236305581601,"南京南京溧水县东屏镇","2013年01月24日"
" 158","绿地缤纷广场",118.7859687464914,32.1181890588941,"南京幕府东路绿地缤纷广场","2017年09月16日"
0,"武夷名仕园",118.9415681110799,31.94393485349766,"南京淳化街道平和路8号","2015年10月21日"
" 27300","通宇林景尊园",118.657872540295,32.07513036448952,"南京新浦路通宇林景尊园","2017年12月20日"
0,"中宏万家广场",118.887211520705,31.33227603008732,"南京淳溪路北漪路129号","2015年09月16日"
0,"碧桂园欧洲城",118.7780744080256,32.05723550180587,"南京滁宁大道1998号","2017年07月25日"
0,"清香雅苑",118.841336783057,32.36038713624895,"南京雄州街道园林西路188号","2016年12月29日"
0,"隆豪翡翠星城",118.9094219079475,31.33541431732358,"南京淳溪镇宝塔路350号","2017年07月02日"
0,"弘阳时光里",118.7172462747398,32.18039301137142,"南京蓝海路弘阳时光里","2017年06月24日"
0,"东方兰园",118.8411746011836,32.1312287642796,"南京栖霞经五路与迈化路交汇处","2016年07月28日"
0,"中垠紫金观邸",118.9015461158973,32.05232823923972,"南京马群街道中垠紫金观邸","2017年12月20日"
0,"银城蓝溪郡",118.8829081594136,31.8838176413981,"南京秣陵街道创新东路2号","2015年10月01日"
0,"高科荣境",118.9883087451717,32.1266799019819,"南京守敬路313号","2013年11月01日"
0,"北辰旭辉铂悦金陵",118.7330601392595,32.0303034041956,"南京乐山路99号","2017年03月29日"
0,"高科荣境",118.9883087451717,32.1266799019819,"南京守敬路313号","2012年10月23日"
0,"瑞景叶泊蓝山",118.7785771896195,31.84979622406829,"南京江宁丹阳大道110号","2012年10月02日"
0,"中航樾公馆",118.8889663093153,31.9539171307712,"南京淳化街道泉东路58号","2017年07月03日"
0,"中航金城1号",118.8129083529218,32.04588343479951,"南京中山东路518号","2015年10月30日"
0,"招商依云郡",118.8323622813084,31.7850970443259,"南京禄口街道信诚大道33号","2016年07月29日"
0,"宏图上水云锦一期",118.7472742689881,32.02124798857086,"南京云锦路宏图上水云锦","2016年06月04日"
0,"正荣润峯",118.8217494398188,32.08739182928039,"南京河西南部学子路","2017年04月21日"
0,"君悦花园",118.7500499485732,32.251425749874,"南京大厂浦六南路8号","2014年08月23日"
" 12800","绿城玫瑰园",118.6684766083485,32.1311378986881,"南京位处南京唯一省级旅游度假区——珍珠泉旅游度假区密林深处","2014年09月27日"
0,"富力尚悦居一期",118.6680546194539,31.91023898425397,"南京雨花板桥新城新湖大道（近莲花湖公园）","2015年10月24日"
0,"京门府",118.8085602299652,32.03040026511993,"南京通济门外大街7号","2013年11月11日"
" 300","湖南路地下商业街",118.7811560342979,32.07499141065085,"南京湖南路地下商业街","2017年06月03日"
" 30000","首创立方",118.7276498032747,31.97184110400703,"南京建邺地铁二号线天迈广场油坊桥站","2017年10月13日"
0,"龙湖新壹城",118.9096472789661,31.91520240361229,"南京龙眠大道660号","2017年10月25日"
0,"苏宁钟山朝阳府",118.8980239749758,32.0913139891331,"南京玄武大道苏宁钟山朝阳府","2014年03月30日"
" 20000","东原亲山",118.7780744080256,32.05723550180587,"南京宝华山国家森林公园南门","2017年12月22日"
" 2500","雅居乐长乐渡",118.7926028821606,32.01972120038842,"南京剪子巷35号","2017年12月20日"
" 28000","万科金域国际",118.8670370162397,31.96098400072414,"南京同夏路24号","2018年03月30日"
" 7500","碧桂园十里春风",118.8942498342062,31.34694445386893,"南京红琊山路碧桂园十里春风","2018年03月07日"
0,"橡树城",119.0426089417233,31.68602924142953,"南京红光东路8号","2018年01月23日"
0,"世茂君望墅",118.8725697337739,32.01039784610178,"南京石杨路107号","2015年09月26日"
" 42000","弘阳燕澜七缙",118.74179198502,32.16709029296466,"南京沿江街道高新技术产业开发区","2017年08月17日"
0,"华辉秦淮湾",118.8808732566877,31.32863816252344,"南京宝塔路98号","2017年06月05日"
" 25000","涵碧楼",118.7560033865948,32.04442588871159,"南京汉中门大街涵碧楼","2015年08月29日"
" 35","绿地理想城",118.7780744080256,32.05723550180587,"南京高塘路99号","2018年01月06日"
" 6900","碧桂园晚亭印象",118.8942498342062,31.34694445386893,"南京滁阳路碧桂园晚亭印象","2017年11月19日"
" 18000","远洋山水",118.7780744080256,32.05723550180587,"南京秣周西路33号","2017年12月05日"
" 32000","仙林汽配城",118.902114498946,32.12560776782336,"南京王子楼西108号","2017年08月04日"
0,"万景佳苑",119.0396954207556,31.68829544993976,"南京红光路19号","2016年10月10日"
0,"金牛湖度假中心",118.9754313200928,32.47562584733648,"南京金牛湖街道金牛湖社区88号","2013年12月17日"
" 18500","郦湖美墅",118.8189743899458,32.5387256198191,"南京马鞍街道弘湖路1号","2017年07月09日"
0,"顾家欧亚达商业广场",119.052310708604,31.65738516553092,"南京南京市溧水区秦淮路159-21号","2015年11月12日"
" 15000","弘阳时代中心二期",118.7272778320308,32.14511467919412,"南京大桥北路弘阳时代中心","2017年10月29日"
0,"汤城汇",119.0656405697445,32.04829213296588,"南京南京市江宁区汤山国际温泉城圣汤大道9号","2015年02月12日"
" 29000","银城KinmaQ+社区",118.9122779050283,32.07294880801665,"南京金马路银城KinmaQ+社区","2017年10月01日"
" 45","翠屏水晶广场",118.8768133532573,32.1697910628216,"南京新港大道88号","2016年01月30日"
0,"龙湖新壹城",118.9096472789661,31.91520240361229,"南京龙眠大道660号","2017年06月25日"
" 26000","京奥港未来墅",118.9140264791611,32.03356613557909,"南京智汇路92号","2017年09月15日"
0,"锦绣江山花园",118.7555719448312,32.11157894414232,"南京宝塔桥西街155号","2016年11月25日"
" 38000","通宇林景象山墅院",118.6349031280151,32.08732150414787,"南京江浦街道白马路89号","2016年03月26日"
" 18500","明发新城中心",118.6560511800599,32.07166634921652,"南京江浦街道浦口大道37号","2015年08月12日"
" 17000","明发财富中心",118.6746630497516,32.06346625671051,"南京浦口大道6号","2017年10月01日"
0,"蓝光公园1号",118.6732109972846,31.92591631683342,"南京华新路蓝光公园1号","2017年06月17日"
0,"恒大金碧天下",119.0737540920597,31.70057502793663,"南京永湖路188号","2018年03月29日"
" 11000","东骏悦府",118.818904818879,32.33177772895079,"南京龙池街道莉湖西路31号","2016年11月03日"
0,"钟山颐府",118.8132103416749,32.04676420264064,"南京中山东路301号","2016年06月01日"
" 34000","龙江里",118.7459875038366,32.05770706730537,"南京江东北路龙江里","2016年12月30日"
" 17000","蓝天星港花园",118.8615802594193,31.78563307820375,"南京来凤路5号","2017年12月23日"
" 33500","江山汇悦山府",118.7575440056969,32.11252831954423,"南京宝塔桥江山汇悦山府","2017年12月24日"
" 14000","中州国际广场",118.7780744080256,32.05723550180587,"南京上海北路699号","2017年05月25日"
0,"钟鼎名悦广场",118.8684804848855,32.0436483208337,"南京中山门大街297号","2017年09月16日"
" 50000","钟鼎名悦广场",118.8684804848855,32.0436483208337,"南京中山门大街297号","2018年03月19日"
" 45000","大华锦绣华城商业",118.7294785053607,32.1235233911917,"南京浦口区浦珠北路59号","2017年07月18日"
0,"绿地华侨城海珀滨江",118.6956499799235,31.98139662120764,"南京龙王大街绿地华侨城海珀滨江","2017年11月20日"
" 20000","龙湖紫都城",118.7778016186931,32.08605878044825,"南京中央门街道龙湖紫都城","2018年03月21日"
0,"中海桃源里",118.7477835049071,32.0838591117657,"南京热河南路果品市场地块中海桃园里","2018年03月"
0,"融创臻园",118.6190333484689,32.0621065277938,"南京雨山西路和广电南路交汇处","2017年12月07日"
0,"融创玉兰公馆",118.8495515228439,32.15160833098263,"南京燕子矶街道融创玉兰公馆","2018年02月25日"
0,"新城璞樾钟山",118.9177116598378,32.08330568277308,"南京奔马路新城璞樾钟山","2017年12月02日"
" 29000","嘉誉山",118.8445733316993,32.11082742604975,"南京兴贤路19号","2017年07月09日"
" 28600","金浦紫御东方",118.8411746011836,32.1312287642796,"南京经五路金浦紫御东方","2017年11月06日"
0,"葛洲坝招商紫郡兰园",118.8395779098515,32.1265750663835,"南京和燕路葛洲坝招商紫郡蘭园","2017年10月"
" 2200","九间堂",118.7884886883792,31.92303000915643,"南京康厚街10号","2018年04月08日"
" 23000","花样年喜年中心",118.7883423094963,32.1027477897518,"南京鼓楼区中央北路河路道1号","2016年09月21日"
0,"金陵雅颂居",118.8140877346326,32.0310141948896,"南京大光路67号","2016年08月14日"
0,"云栖山庄",118.9641841757857,32.05943738584202,"南京汤山街道阳明路99号","2016年09月11日"
0,"世茂城品",118.7667116904265,31.97666251592093,"南京宁双路世茂城品","2017年06月23日"
0,"新城香悦澜山",118.9822212970358,32.131600315832,"南京纬地路新城香悦澜山","2017年04月10日"
" 23800","万科金域东方",118.9482089800879,31.93407601061809,"南京淳化街道梨树园路9号","2018年03月24日"
" 23600","弘阳禹洲时光春晓",118.9482089800879,31.93407601061809,"南京梨树园路10号","2018年01月10日"
0,"雍福龙庭",118.7979409742604,31.91281860314555,"南京将军大道129号","2017年01月25日"
" 32000","恒大翡翠华庭",118.828241033807,32.10494908615794,"南京华飞路1号","2017年07月05日"
0,"苏宁钟山朝阳府",118.8980239749758,32.0913139891331,"南京玄武大道苏宁钟山朝阳府","2016年05月08日"
0,"中建国熙台",118.6536929089097,32.06590199137902,"南京新浦路中建国熙台","2017年12月02日"
" 643","金隅紫京府",118.7421926822775,31.99647068073844,"南京泰山路金隅紫金府","2017年12月30日"
" 25500","融侨观邸",118.6341269686986,32.08509008337853,"南京海院路88号","2017年07月02日"
0,"罗托鲁拉小镇",118.8647752581351,31.91520232380234,"南京秣陵街道竹山南路688号","2017年11月18日"
0,"明发云庭",118.6273049554862,32.04649210448395,"南京江浦街道胡桥路9号","2018年02月09日"
" 32000","高科荣境桂山堂",118.9883087451717,32.1266799019819,"南京守敬路313号","2017年07月16日"
" 28000","雅居乐滨江国际",118.6781901879467,32.06813815781693,"南京天浦路96号","2017年11月06日"
0,"华润新悦天地",118.765894137192,32.02198720429714,"南京所街7号","2016年08月08日"
0,"恒大华府",118.7641008876313,31.99525360625542,"南京雨花台区赛虹桥街道","2017年02月13日"
0,"骋望云邸",118.9026815093839,32.10341702868925,"南京鹤鸣路68号","2015年12月19日"
0,"骋望七里楠花园",118.8184407542525,32.31827364260565,"南京龙池街道龙华路66号","2016年08月19日"
" 27800","明发珠江国际",118.7780744080256,32.05723550180587,"南京张敦路59号","2016年04月15日"
" 500","尚峰尚水",118.5145126700257,32.09785265155924,"南京汤泉街道尚峰尚水","2017年04月22日"
" 23000","牧龙原墅",118.7780744080256,32.05723550180587,"南京滨溪大道1000号","2015年04月24日"
0,"中浩山屿湖",118.7292404544005,31.7599655424243,"南京横溪街道甘泉湖路1号","2017年06月12日"
0,"紫金华府",118.8854034320355,32.04480227079186,"南京顾家营路紫金华府","2017年12月25日"
0,"中锐星湖名邸",118.8007147162005,32.04694030889066,"南京天元路中路128号","2017年04月23日"
0,"都市丽景",118.8609103364073,31.95098423673667,"南京莱茵达路12号","2017年01月22日"
0,"南京碧桂园",118.7125232403854,31.88697832396671,"南京牛首大道庆兴路8号","2017年09月05日"
0,"滟紫台",118.7882627196281,31.94294979560223,"南京将军大道韩府路18号","2014年10月30日"
0,"融侨悦城",118.8869047026614,31.96219111571692,"南京东山街道万安南路9号","2018年03月30日"
" 24300","北江锦城",118.6206637747662,32.05876455593678,"南京雨山西路89号","2017年11月01日"
0,"保利西江月",118.6645215740018,32.04810818480485,"南京城南河路保利西江月","2017年05月27日"
0,"荣盛华府",118.8481243435581,32.33635869765098,"南京雄州街道桥西路162号","2017年07月15日"
0,"九龙湖别墅",118.8140674437078,31.91976552926573,"南京秣陵街道清水亭西路188号","2016年11月18日"
0,"保利中央公园东苑",118.8330420815034,31.91477073900939,"南京秣陵街道长亭街59号","2017年06月15日"
0,"中粮祥云",118.9062613466718,31.92465484995038,"南京淳化街道鹏山路28号","2016年11月05日"
" 25000","路易庄园",118.6206637747662,32.05876455593678,"南京雨山西路89号","2018年01月19日"
0,"世茂招商语山",118.9136695608227,32.07140443035624,"南京金马路世茂招商语山","2016年10月29日"
0,"恒大龙珺",118.9296173797617,32.02524213109228,"南京麒麟街道袁家边路9号","2017年07月08日"
0,"鲁能泰山7号院",118.7780744080256,32.05723550180587,"南京格致西路1号","2017年07月19日"
0,"荣盛花语城",118.8513362232311,32.32446249240832,"南京龙池街道林场路1号","2017年08月05日"
" 1762","鸿信云深处",118.9559512057867,32.00015966099539,"南京东山街道神凤路1169号","2013年07月14日"
" 13500","卧龙湖小镇",119.0553388291052,31.73120374609378,"南京卧龙湖大道1号","2018年02月03日"
0,"金盛田阳光青城",118.8147607037986,32.32157817364182,"南京龙华路8号","2016年06月12日"
" 18500","华润幸福里",118.8973247339668,32.13880981806992,"南京尧化街道前塘路9号","2017年09月30日"
0,"禹洲映月溪山",118.7366966443538,31.95870496486962,"南京善水湾西侧禹洲映月溪山","2017年04月28日"
0,"武夷绿洲沁荷苑",118.846294764726,31.93623568074372,"南京天元中路99号","2017年07月03日"
0,"大吉公元",118.5248328322161,32.09369697857316,"南京汤泉镇江星桥线","2016年09月14日"
" 900","碧桂园湖光山色",118.7319854379881,31.86572391505143,"南京谷里街道悦湖路16号","2017年12月23日"
0,"中航国际社区",118.8495515228439,32.15160833098263,"南京燕子矶街道中航国际社区","2017年10月30日"
" 11500","荣盛鹭岛荣府",118.8189743899458,32.5387256198191,"南京马鞍街道鹭岛南路3号","2018年03月24日"
" 25800","弘阳燕江府",118.8340742084835,32.14416255725624,"南京太新路弘阳燕江府","2016年12月29日"
0,"东方熙龙山院",118.6349031280151,32.08732150414787,"南京白马路90号","2012年12月20日"
0,"大发融悦",118.8757772890042,32.03761727573808,"南京双拜岗路大发融悦","2016年04月26日"
" 8500","花样年花样城",118.9272283247083,31.3449842161952,"南京双高路50号","2017年12月06日"
0,"景湖名都",118.9751052783113,31.31262210058944,"南京高淳固城镇育才西路91号（宁宣公路东侧）","2014年11月12日"
" 864","长发都市诸公",118.7849717773923,31.99997241005109,"南京雨花南路5号","2015年10月24日"
0,"景枫你山",118.9036931810493,31.90215849113093,"南京弘景大道3888号","2016年08月26日"
" 38700","深业滨江半岛",118.7461778251301,32.10314358339629,"南京龙江路30号","2017年12月25日"
" 20000","瑞安翠湖山",118.7516557478249,31.91895445421006,"南京牛首山大道121号","2018年04月03日"
" 25800","电建海赋尚城",118.8429568887222,32.137634319277,"南京经五路电建海赋尚城","2018年01月"
" 43000","银城君颐东方",118.8968338818701,32.05156767640222,"南京马群街169号","2017年12月02日"
0,"紫艺华府",118.7780744080256,32.05723550180587,"南京松杨路紫艺华府","2018年01月19日"
0,"紫金铭苑",118.8132958055628,32.12191964138096,"南京幕府东路228号","2017年07月24日"
0,"招商1872公园里",118.8395779098515,32.1265750663835,"南京钟燕东路招商1872公园里","2017年03月08日"
" 15000","江岸景城",118.4751745036245,31.86526441060137,"南京乌江故居路8号","2015年02月08日"
" 25000","山河水花园",118.5246071329567,32.09294316228797,"南京汤泉镇假日路8号","2014年04月30日"
0,"梁台煦府",118.9767422251149,31.87359481459602,"南京湖熟街道润湖大道398号","2016年12月10日"
0,"九月森林",118.6223212670084,32.08342667185487,"南京黄山岭路九月森林","2018年03月24日"
0,"海玥名都",118.7421060189721,32.02460861962323,"南京月安街11号","2017年04月21日"
" 19000","景瑞春风十里",118.7728226445226,31.86138035874453,"南京吉山大道9号","2017年06月06日"
0,"弘阳爱上城",118.7780744080256,32.05723550180587,"南京秦山街道123地块","2015年11月20日"
0,"红太阳国际财智广场",118.9089895903361,31.33618242769404,"南京高淳淳溪镇宝塔路269号","2016年04月10日"
" 8300","海尔双湖壹号公馆",118.9719600879411,31.39315094089743,"南京双湖路1号","2017年09月27日"
" 24600","大华锦绣华城香鸢美颂",118.7294785053607,32.1235233911917,"南京浦珠北路59号","2017年11月25日"
0,"万悦城",118.9519791045336,31.36982009066363,"南京九龙山路万悦城","2017年05月03日"
" 22000","凤凰和睿大厦",118.7973636485803,32.03553521855789,"南京太平南路与白下路交界处","时间待定"
0,"恒基富荟山",118.9121476516276,32.11865857092845,"南京栖霞文鼎路1号（玄武大道与学林路交汇处）","2014年10月30日"
0,"弘阳印象华庭",118.7471568514749,32.01816879567414,"南京大桥北路9号","2017年03月01日"
0,"万科安品园舍",118.7659327984646,31.9649933148731,"南京仓家巷万科安品园舍","2016年06月20日"
0,"中交锦致",118.8108576885273,31.97475979445248,"南京明城大道以西中交锦致","2017年07月15日"
0,"明发浦泰梦幻家",118.6477834195869,31.92740779796182,"南京凤汇大道明发浦泰梦幻家","2017年09月05日"
0,"金浦御龙湾",118.8224231671546,32.11951519928469,"南京和燕路390号","2017年07月21日"
0,"世茂梦享家",118.7780744080256,32.05723550180587,"南京淳化街道瑞文路199号","2016年04月30日"
0,"旭辉银城白马澜山",118.6363220976868,32.08258412514195,"南京浦口区白马路与狮山路交汇处","2017年12月25日"
" 20000","首创立方",118.7276498032747,31.97184110400703,"南京建邺地铁二号线天迈广场油坊桥站","2016年04月01日"
0,"金地中心风华",118.7023798602279,31.98198025715574,"南京江东南路金地中心风华","2017年11月19日"
0,"中南锦苑",118.7565149652946,31.98425669945897,"南京软件大道中南锦苑","2016年09月03日"
0,"五矿晏山居",118.875564098649,32.04411168263164,"南京钟灵街50号","2017年07月14日"
" 26500","恒大悦澜湾",118.7780744080256,32.05723550180587,"南京嘉业路8号","2017年11月30日"
0,"中国铁建原香颂",118.6161343435623,31.86547801206223,"南京宁桥南路108号","2017年09月30日"
0,"旭辉铂悦秦淮",118.7953806229975,31.97484130113306,"南京东山街道农花路102号","2017年07月"
0,"石林大公园",118.6658627944333,31.93439038369555,"南京凤集大道6号","2012年08月08日"
0,"金湖家园",119.1184075537228,31.69623158405371,"南京金湖路100号","2011年08月18日"
0,"爱涛天岳城",119.0541065336066,31.64526304803731,"南京秦淮大道399号","2018年01月08日"
0,"钟山国际高尔夫",118.8777796335453,32.08813762841439,"南京环陵路7号","2013年06月01日"
0,"银城一方山",118.7826673542676,31.87887139529194,"南京江宁区淳化街道吉印大道4199号","2016年01月01日"
0,"银城一方山",118.7826673542676,31.87887139529194,"南京江宁区淳化街道吉印大道4199号","2015年11月13日"
0,"福基九龙新城",118.7450738842785,32.20769579970177,"南京大厂凤滨路18号","2011年05月06日"
" 28000","天泽苑",118.8574259557579,31.92671560623449,"南京江宁区秣陵街道竹山路588号","2018年02月03日"
0,"五矿崇文金城",118.7028254601846,31.97343857482574,"南京吴侯街158号","2017年11月20日"
0,"中国铁建青秀城",118.8406364398973,32.12259447503586,"南京迈尧路327号","2016年06月04日"
0,"升龙天汇",118.7051317904119,31.97081643936793,"南京新河路升龙天汇","2017年11月19日"
" 23000","山水云房花园",118.7078212578206,32.11862130443328,"南京浦珠北路126号","2017年05月22日"
0,"玄武湖金茂广场御景华府",118.7898749085269,32.07904243541421,"南京中央路201号","2009年11月01日"
0,"正荣润江城",103.9041805595216,36.05269695095417,"南京镇南河路99号","2017年07月05日"
" 6800","创维乐活城",119.0207176406826,31.69267717506764,"南京团山西路26号","2017年09月29日"
0,"国府大院",118.9739334747058,31.86861542516493,"南京汤铜路国府大院","2016年05月12日"
0,"中山首府",119.0438166011933,31.63602130552195,"南京崇文路68号(体育公园南300米)","2017年07月28日"
0,"罗托鲁拉小镇",118.8647752581351,31.91520232380234,"南京秣陵街道竹山南路688号","2016年04月30日"
0,"保利堂悦",118.8131260213299,31.98708676552194,"南京汇景北路保利堂悦","2017年01月18日"
0,"星叶枫情水岸",118.8818924272452,31.94772274332298,"南京衫湖东路18号","2015年03月06日"
0,"万科九都荟",118.8123184428798,31.97657188420265,"南京民和路1号","2015年11月17日"
0,"银城蓝溪郡",118.8829081594136,31.8838176413981,"南京秣陵街道创新东路2号","2016年04月16日"
0,"朗诗青春街区",118.860522997851,31.78379644297444,"南京来凤路18号","2017年11月30日"
0,"万达茂",118.9886366904625,32.13304989681055,"南京守敬路万达茂","2015年10月"
0,"创源无想墅",118.707219725188,32.10124607362065,"南京珍珠南路199号","2016年01月12日"
" 29500","星叶瑜憬湾",118.8313789586822,32.10966291802278,"南京迈皋桥街道网板路8号","2018年03月27日"
" 300","佳兆业城市广场",118.7111427514268,31.97549666288131,"南京太清路佳兆业城市广场","2017年11月19日"
0,"万科星荟",118.8108576885273,31.97475979445248,"南京明城大道万科都荟南苑","2017年07月12日"
" 9550","嘉恒有山",118.9478479609848,32.45045312201094,"南京金牛湖街道通河路9号","2017年12月16日"
0,"艾菲国际",118.7087704083208,32.16648888960027,"南京丽景路艾菲国际","2015年04月25日"
0,"星叶羊山湖花园",118.9464675340093,32.12228406250346,"南京羊山北路星叶羊山湖花园","2014年10月25日"
0,"保利礼墅",118.9295337061967,32.11097695649148,"南京仙林街道保利礼墅","2015年06月20日"
0,"万科城",119.0318104111878,31.64794059536451,"南京秀园路6号","2018年03月25日"
0,"盘金华府",118.7399702187509,32.20805330579511,"南京大厂新华西路458号","2014年06月21日"
0,"城开新都雅苑",118.84800376223,32.33955818255956,"南京雄州街道王桥路28号","预计2017年11月"
0,"龙海骏景",118.867418077437,32.34747334123522,"南京冶浦路99号","2017年08月03日"
0,"长江峰景",118.7403954774776,32.09263358876117,"南京中山北路645号","2010年12月30日"
" 35000","明发云庭",118.6273049554862,32.04649210448395,"南京江浦街道胡桥路9号","2017年03月18日"
" 29000","升龙汇金中心",118.7172690063607,31.98712298032158,"南京江山大街升龙汇金中心","2015年03月15日"
" 16000","星悦城",118.7026868902715,32.16673496276866,"南京星火路星悦城","2018年02月24日"
" 40000","金地浅山艺境",118.6578035046182,32.09415726915299,"南京七里桥北路金地浅山艺境","2016年06月01日"
0,"弘阳燕江府",118.8340742084835,32.14416255725624,"南京太新路弘阳燕江府","2017年06月30日"
" 900","新城璞樾钟山",118.9177116598378,32.08330568277308,"南京奔马路新城璞樾钟山","2017年12月02日"
0,"金鼎湾如院",118.7697317594154,32.08261037776124,"南京中山北路279号","2015年10月17日"
0,"21世纪百家湖1号",118.8309498381401,31.93341172700494,"南京双龙大道1539号","2013年07月16日"
" 25600","三金鑫宁府",118.6370190480167,32.05495625325235,"南京珠泉西路三金鑫宁府","2017年12月09日"
0,"中国铁建青秀城",118.8406364398973,32.12259447503586,"南京迈尧路327号","2014年12月20日"
0,"招商兰溪谷",119.0485989012537,31.65760622534108,"南京永新路招商兰溪谷","2017年11月02日"
" 60000","金轮星立方",118.7817723886575,31.99799477275822,"南京宁南街道金轮星立方","2015年12月04日"
" 20000","证大喜玛拉雅中心",118.8108921124928,31.97029556775504,"南京民智路9号、10号、11号、12号、13号","2018年01月06日"
0,"乐基广场",118.7509886733396,32.04035147114477,"南京云锦路所街","2014年11月26日"
" 50000","绿国万象都荟",118.8020402854551,32.0053428312632,"南京永乐路洪家园1号","2015年11月17日"
" 17100","江山汇金",118.7650569131626,32.06860445880062,"南京鼓楼区燕江路201号","2014年05月07日"
" 60000","绿地之窗",118.7965695114756,31.97380763395347,"南京南京南站北广场绿地之窗","2017年01月01日"
" 30000","海峡城",118.6930115416576,31.98708282970404,"南京扬子江大道399号","2016年12月20日"
0,"中海玄武公馆",118.8280283536893,32.10309198480382,"南京恒嘉路中海玄武公馆","2017年03月30日"
" 420","锦绣华府",118.748732942865,32.10087185564733,"南京龙江路（南京西站西侧）","2016年09月02日"
0,"天生御景",119.0044347558952,31.63476853301292,"南京洪蓝镇凤凰井路26号","2014年10月17日"
0,"弘阳春上西江",118.6741629603793,31.94682158034673,"南京龙藏大道12号弘阳","2016年11月27日"
0,"骋望七里楠花园",118.8184407542525,32.31827364260565,"南京龙池街道龙华路66号","2015年02月14日"
0,"通宇林景熙园",118.6501450746539,32.0913457771416,"南京江浦街道七里路与沿山大道交汇处","2017年08月02日"
